stop_id,stop_code,stop_name,stop_desc,stop_lat,stop_lon,zone_id,stop_url,location_type,parent_station
1,1,"South Deerfield Center",,  42.477045, -72.607454,,,0,
10,10,"Silver Lane",,  42.454685, -72.567691,,,0,
100,100,"Haydenville Center OB",,  42.374311, -72.701847,,,0,
1000,1000,"Plainfield / Wason",,  42.123722, -72.617441,,,0,
10006,10006,"MassMutual Enfield",,  42.018114, -72.584851,,,0,
1001,1001,"Bay / Aster",,  42.124004, -72.560011,,,0,
1002,1002,"Springfield / Medical Ctr Drive (across)",,  42.123712, -72.603921,,,0,
1003,1003,"Carew / Van Horn",,  42.123644, -72.586598,,,0,
1005,1005,"Liberty / Cleveland",,  42.123626, -72.584259,,,0,
1006,1006,"Springfield / Medical Ctr Drive",,  42.123469, -72.603901,,,0,
1007,1007,"3300 Main Street",,  42.123174, -72.609741,,,0,
1008,1008,"Carew/Van Horn(opposite)",,  42.123496, -72.586603,,,0,
1009,1009,"Bay / Edgewood",,  42.121816, -72.561574,,,0,
101,101,"Haydenville IB",,  42.374226, -72.701847,,,0,
1012,1012,"State / Tilton (1)",,  42.123253, -72.542139,,,0,
1013,1013,"Liberty / Cleveland",,  42.122942, -72.584344,,,0,
1014,1014,"Main/Noble",,  42.123080, -72.609528,,,0,
1015,1015,"State / Tilton (2)",,  42.123619, -72.540950,,,0,
1017,1017,"Plainfield / Demond",,  42.122388, -72.616730,,,0,
1018,1018,"Elm / Lower Grandview (1)",,  42.121992, -72.627419,,,0,
102,102,"Amherst Glass (Out)",,  42.376194, -72.501264,,,0,
1020,1020,"Parker / Sunrise (1)",,  42.123237, -72.497467,,,0,
1022,1022,"Carew/Armory",,  42.122357, -72.588055,,,0,
1023,1023,"Carew / Armory",,  42.122202, -72.588450,,,0,
1024,1024,"Plainfield / Laurel",,  42.121969, -72.616608,,,0,
1026,1026,"Main / Mechanic",,  42.120474, -72.745437,,,0,
1027,1027,"Court / Washington",,  42.120344, -72.752822,,,0,
1029,1029,"State / Ivanhoe (2)",,  42.122823, -72.542668,,,0,
103,103,"Jones Library (Out)",,  42.375904, -72.521288,,,0,
1030,1030,"Parker / Sunrise (2)",,  42.122615, -72.497503,,,0,
1031,1031,"Liberty / Phoenix",,  42.121751, -72.584177,,,0,
1032,1032,"Elm / Dingle (2)",,  42.121436, -72.627338,,,0,
1033,1033,"Court / Bates",,  42.119950, -72.756151,,,0,
1035,1035,"Bay / Edgewood",,  42.121765, -72.561791,,,0,
1036,1036,"Bay / Bertil Hammarlof",,  42.122839, -72.560696,,,0,
1037,1037,"Independence House",,  42.121700, -72.549337,,,0,
1038,1038,"Parker / Brewster",,  42.122193, -72.497776,,,0,
1039,1039,"Plainfield / Talcott",,  42.121087, -72.616006,,,0,
104,104,"Gray Street (In)",,  42.375965, -72.511279,,,0,
1040,1040,"State / Edgemont",,  42.121964, -72.544127,,,0,
1041,1041,"Main / George",,  42.119676, -72.743277,,,0,
1042,1042,"Carew/Nye",,  42.121234, -72.590014,,,0,
1043,1043,"Carew/Parkside",,  42.121120, -72.590531,,,0,
1044,1044,"Court / High",,  42.119352, -72.759345,,,0,
1046,1046,"Court / Mill",,  42.119220, -72.759283,,,0,
1049,1049,"Elm / Lower Grandview (2)",,  42.120360, -72.627493,,,0,
105,105,"Churchill Street",,  42.375886, -72.516554,,,0,
1051,1051,"Chestnut / Baystate Medical Center Drive",,  42.120544, -72.605243,,,0,
1052,1052,"Plainfield / Abbe (1)",,  42.120356, -72.615739,,,0,
1053,1053,"Chestnut / Baystate Medical Center",,  42.120345, -72.604985,,,0,
1054,1054,"State / Hillmont",,  42.121167, -72.544839,,,0,
1056,1056,"Main / Meadow",,  42.119181, -72.740289,,,0,
1058,1058,"Parker / Mallowhill",,  42.121315, -72.497896,,,0,
106,106,"Gray Street (Out)",,  42.375831, -72.511924,,,0,
1061,1061,"Kindred Hospital",,  42.120687, -72.545477,,,0,
1062,1062,"Plainfield / Abbe (2)",,  42.120345, -72.615609,,,0,
1063,1063,"Carew / Melha (2)",,  42.120245, -72.592485,,,0,
1064,1064,"Carew / Melha (1)",,  42.120119, -72.592470,,,0,
1065,1065,"Bay/Oak Grove (across)",,  42.120073, -72.563426,,,0,
1066,1066,"Main/Cumberland",,  42.119908, -72.608199,,,0,
1067,1067,"Elm / Lower Grandview (3)",,  42.119676, -72.627430,,,0,
1068,1068,"Main/Cumberland(opposite)",,  42.119629, -72.608242,,,0,
1069,1069,"Main / Noble",,  42.118184, -72.736920,,,0,
107,107,"Lincoln Avenue (Out)",,  42.375733, -72.523918,,,0,
1070,1070,"Bay / Oak Grove",,  42.120294, -72.563107,,,0,
1075,1075,"State / Clarence",,  42.119965, -72.545886,,,0,
1077,1077,"Chestnut / Waverly",,  42.119303, -72.604580,,,0,
1078,1078,"Parker / Burns",,  42.120262, -72.498379,,,0,
1079,1079,"State / Blunt Park",,  42.119670, -72.546328,,,0,
108,108,"Aspen Chase Apts (In)",,  42.375824, -72.507237,,,0,
1080,1080,"Elm / Larone (1)",,  42.118693, -72.627667,,,0,
1081,1081,"Chestnut / Pratt",,  42.118975, -72.604050,,,0,
1083,1083,"Plainfield / Clayton",,  42.118769, -72.614878,,,0,
1084,1084,"Blunt Park / State",,  42.119425, -72.548216,,,0,
1089,1089,"Elm / Larone (2)",,  42.118497, -72.627559,,,0,
109,109,"Aspen Chase Apts (Out)",,  42.375706, -72.507403,,,0,
1091,1091,"Plainfield / Clayton (opposite)",,  42.118678, -72.614726,,,0,
1093,1093,"Main/Portland",,  42.118595, -72.607812,,,0,
1097,1097,"Main opposite Portland",,  42.118493, -72.607607,,,0,
11,11,"Cliffside Apts",,  42.452232, -72.563593,,,0,
110,110,"Amherst Town Hall",,  42.375613, -72.519342,,,0,
1100,1100,"Parker / Vincent",,  42.119271, -72.498551,,,0,
11003,11003,"Holyoke High School",,  42.200714, -72.623224,,,0,
1101,1101,"State / Blunt Park",,  42.118686, -72.546951,,,0,
11011,11011,"Jarvis and Easthampton",,  42.219908, -72.639590,,,0,
1103,1103,"Carew/Algonquin(opposite)",,  42.118077, -72.594920,,,0,
1104,1104,"Chestnut / Chapin",,  42.117959, -72.603105,,,0,
1105,1105,"Carew/Algonquin",,  42.118056, -72.594802,,,0,
1106,1106,"Bay / Clifford",,  42.118374, -72.564987,,,0,
1107,1107,"Putnam High School",,  42.117745, -72.548214,,,0,
1109,1109,"Chestnut / Calhoun",,  42.117957, -72.602915,,,0,
111,111,"Heatherstone Road (Out)",,  42.375848, -72.481193,,,0,
1110,1110,"Sanderson / Sanderson",,  42.117799, -72.614473,,,0,
11101,11101,"Heatherstone Road (In)",,  42.376103, -72.481141,,,0,
11115,11115,"Cherry and Homestead (1)",,  42.201157, -72.642503,,,0,
11116,11116,"Homestead and Cherry",,  42.201009, -72.642222,,,0,
11117,11117,"Main and Sargent(Holyoke Tripper)",,  42.197915, -72.609233,,,0,
1112,1112,"Sanderson / Whiting (opposite)",,  42.117693, -72.616285,,,0,
11124,11124,"Main and Sargent(Holyoke Tripper)",,  42.197465, -72.609680,,,0,
1113,1113,"Sanderson / Whiting",,  42.117615, -72.616231,,,0,
1114,1114,"Bay / Princeton",,  42.117846, -72.565631,,,0,
1117,1117,"Sanderson / Division (1)",,  42.117466, -72.617800,,,0,
1119,1119,"Elm / Sheaffer",,  42.117225, -72.627769,,,0,
112,112,"Amherst Common (N)",,  42.374578, -72.519759,,,0,
1120,1120,"Sanderson / Division",,  42.117278, -72.617743,,,0,
1121,1121,"MassMutual",,  42.117633, -72.545465,,,0,
1125,1125,"Wilbraham / Bellwood",,  42.117710, -72.516885,,,0,
1126,1126,"State / Insurance",,  42.117413, -72.548313,,,0,
1127,1127,"Main / Hooker",,  42.116791, -72.607011,,,0,
1128,1128,"Main / E. Hooker",,  42.116808, -72.606885,,,0,
1129,1129,"Wilbraham / Pineview",,  42.117696, -72.514934,,,0,
113,113,"Amherst Common (S)",,  42.374456, -72.519947,,,0,
1130,1130,"Elm / Eldridge",,  42.116639, -72.627408,,,0,
1131,1131,"Wilbraham / Granger",,  42.117656, -72.512733,,,0,
1132,1132,"Wilbraham / Denwall",,  42.117602, -72.514579,,,0,
1133,1133,"Wilbraham / Catalpa",,  42.117629, -72.510548,,,0,
1134,1134,"Wilbraham / Jonquil",,  42.117556, -72.512366,,,0,
1135,1135,"Wilbraham and Fenway (Northside)",,  42.117584, -72.507831,,,0,
1136,1136,"Wilbraham / Birchland",,  42.117551, -72.510816,,,0,
1137,1137,"Carew/ Cass and Desrosiers",,  42.116775, -72.595132,,,0,
1139,1139,"Liberty / Ledyard",,  42.116765, -72.584749,,,0,
114,114,"Amity Place (Out)",,  42.374069, -72.531565,,,0,
1140,1140,"Wilbraham and Jeffrey (Southside)",,  42.117511, -72.508451,,,0,
1142,1142,"Wilbraham / Lumae (2)",,  42.117531, -72.504358,,,0,
1143,1143,"Carew / Bartlett",,  42.116658, -72.595304,,,0,
1144,1144,"Chestnut / Bancroft",,  42.116552, -72.601294,,,0,
1145,1145,"Wilbraham / Lumae (1)",,  42.117424, -72.504431,,,0,
1147,1147,"Sci Tech High School",,  42.116878, -72.549121,,,0,
1149,1149,"Liberty / Genesee (2)",,  42.116602, -72.584894,,,0,
115,115,"Amherst Glass (In)",,  42.376288, -72.501420,,,0,
1151,1151,"Bay / Bowles",,  42.116342, -72.567034,,,0,
1152,1152,"Sanderson / Division (2)",,  42.115979, -72.617784,,,0,
1153,1153,"E Main / Delmont",,  42.114406, -72.727518,,,0,
1154,1154,"E Main / Westgate Plaza Dr",,  42.114632, -72.729652,,,0,
1156,1156,"Parker / Ramp",,  42.116945, -72.498964,,,0,
1157,1157,"Main / Huntington",,  42.115867, -72.606594,,,0,
1158,1158,"Clyde / Sanderson",,  42.115783, -72.617591,,,0,
116,116,"Amherst College",,  42.373071, -72.518820,,,0,
1161,1161,"Mercy Hospital",,  42.116215, -72.593446,,,0,
1162,1162,"Wilbraham / Park (2)",,  42.116634, -72.521076,,,0,
1167,1167,"Wilbraham / Park (1)",,  42.116419, -72.521685,,,0,
1168,1168,"Bay / Dartmouth",,  42.116231, -72.567012,,,0,
117,117,"Oak Knoll Street (Out)",,  42.371646, -72.480099,,,0,
11701,11701,"Oak Knoll Street (In)",,  42.371657, -72.480014,,,0,
1176,1176,"State / Berlin",,  42.115573, -72.551748,,,0,
1177,1177,"Duggan Middle School (2)",,  42.116019, -72.525070,,,0,
1178,1178,"Wilbraham / Kane (2)",,  42.116131, -72.500354,,,0,
1179,1179,"Clyde / Plainfield",,  42.115180, -72.612619,,,0,
118,118,"Colonial Village Apts (In)",,  42.370291, -72.499144,,,0,
1181,1181,"Clyde / Plainfield (2)",,  42.115064, -72.612732,,,0,
1183,1183,"Duggan Middle School (1)",,  42.115846, -72.525177,,,0,
1184,1184,"Wilbraham / Kane (1)",,  42.115922, -72.500254,,,0,
1185,1185,"Chestnut / Hebron",,  42.115089, -72.599359,,,0,
1186,1186,"Parker / Wilbraham",,  42.115836, -72.498663,,,0,
1187,1187,"Main / Sheldon",,  42.114936, -72.606240,,,0,
119,119,"Colonial Village Apts (Out)",,  42.370193, -72.499070,,,0,
1193,1193,"Clyde Street (2)",,  42.114909, -72.614557,,,0,
1194,1194,"State / Dearborn",,  42.115299, -72.552158,,,0,
1195,1195,"Clyde / M (1)",,  42.114633, -72.616424,,,0,
1197,1197,"Carew / Massasoit",,  42.114827, -72.595813,,,0,
12,12,"Amherst Grove",,  42.451567, -72.562870,,,0,
120,120,"Colonial Village Apts / South East Street (In)",,  42.369397, -72.501637,,,0,
1200,1200,"Main / Jefferson",,  42.114526, -72.605920,,,0,
1201,1201,"State / Cortland",,  42.114945, -72.553693,,,0,
1205,1205,"Elm / Kings",,  42.114207, -72.625291,,,0,
1206,1206,"Wilbraham / Barrison (2)",,  42.114944, -72.528020,,,0,
1207,1207,"State / Dresden",,  42.114698, -72.553993,,,0,
1208,1208,"Dwight / Osgood",,  42.115175, -72.602794,,,0,
1209,1209,"Elm / Witch",,  42.113957, -72.625329,,,0,
121,121,"Colonial Village Apts / South East Street (Out)",,  42.369302, -72.501717,,,0,
1210,1210,"Wilbraham / Barrison (1)",,  42.114870, -72.527969,,,0,
1211,1211,"Bay / Buckingham (1)",,  42.114227, -72.568957,,,0,
1213,1213,"Bay / Buckingham (2)",,  42.114465, -72.568630,,,0,
1214,1214,"Plainfield / Orchard (opposite)",,  42.113902, -72.610822,,,0,
1216,1216,"Wilbraham / Delmore",,  42.114645, -72.529887,,,0,
1220,1220,"Plainfield / Orchard",,  42.113754, -72.610840,,,0,
1221,1221,"State/Maynard",,  42.114285, -72.555731,,,0,
1222,1222,"Carew/Chestnut (2)",,  42.113913, -72.596518,,,0,
1225,1225,"Carew/Chestnut (1)",,  42.113869, -72.596408,,,0,
1228,1228,"Wilbraham / Walsh",,  42.114355, -72.531012,,,0,
123,123,"Amherst Community Health Ctr (Out)",,  42.368641, -72.533570,,,0,
1232,1232,"Chestnut / Sherrington",,  42.113658, -72.597436,,,0,
1233,1233,"Main / Bancroft",,  42.113547, -72.605447,,,0,
1234,1234,"Wilbraham / Monticello (2)",,  42.114221, -72.532817,,,0,
1235,1235,"Dwight / Hebron",,  42.113576, -72.601323,,,0,
1236,1236,"Wilbraham / Monticello (1)",,  42.114130, -72.532868,,,0,
1239,1239,"Westfield Shops",,  42.112221, -72.723938,,,0,
124,124,"Amherst Community Health Ctr (In)",,  42.368740, -72.533310,,,0,
1240,1240,"Wilbraham / Truman (2)",,  42.114058, -72.535016,,,0,
1242,1242,"Wilbraham / Truman (1)",,  42.113982, -72.534518,,,0,
1246,1246,"Wilbraham / Unnamed Street (2)",,  42.113785, -72.538469,,,0,
1249,1249,"Wilbraham / Unnamed Street (1)",,  42.113691, -72.538389,,,0,
125,125,"Big Y - Amherst",,  42.367782, -72.534806,,,0,
1253,1253,"State / Mapledell",,  42.113347, -72.558753,,,0,
1254,1254,"75 Springfield Rd",,  42.111680, -72.711815,,,0,
1255,1255,"Wilbraham / Alden (1)",,  42.113203, -72.542749,,,0,
1257,1257,"Plainfield / Lowell",,  42.112716, -72.610102,,,0,
1258,1258,"Springfield / Planet Fitness Dr",,  42.110761, -72.709930,,,0,
1259,1259,"Wilbraham / Norfolk (2)",,  42.113128, -72.550327,,,0,
126,126,"Stony Hill Road (Out)",,  42.367574, -72.479801,,,0,
1260,1260,"Plainfield / Lowell (opposite)",,  42.112564, -72.609907,,,0,
12601,12601,"Stony Hill Road (In)",,  42.367475, -72.479757,,,0,
1261,1261,"Wilbraham / Carlisle",,  42.113152, -72.549174,,,0,
1263,1263,"American International College (1)",,  42.113793, -72.556819,,,0,
1264,1264,"Wilbraham / Norfolk (1)",,  42.112998, -72.550673,,,0,
1265,1265,"Wilbraham / Alden (2)",,  42.113066, -72.543067,,,0,
1266,1266,"Bay/Westminster (In)",,  42.112791, -72.570268,,,0,
1267,1267,"Main opposite Morgan",,  42.112414, -72.604495,,,0,
1268,1268,"Worthington / Federal",,  42.112699, -72.580130,,,0,
1269,1269,"Bay / Westminster",,  42.112943, -72.570030,,,0,
127,127,"Stop and Shop - Hadley",,  42.365715, -72.538760,,,0,
1270,1270,"Carew/Dwight (4)",,  42.112449, -72.598492,,,0,
1271,1271,"Wilbraham / Suffolk (2)",,  42.112839, -72.552317,,,0,
1273,1273,"MLK Community Center (Inbound)",,  42.112706, -72.560698,,,0,
1274,1274,"Carew/Dwight (3)",,  42.112315, -72.598499,,,0,
1275,1275,"Wilbraham / Lakeside",,  42.112823, -72.544634,,,0,
1276,1276,"Wilbraham / Benton",,  42.112798, -72.546189,,,0,
1277,1277,"Elm / Rochelle (1)",,  42.112095, -72.625024,,,0,
1278,1278,"Wilbraham / Suffolk (1)",,  42.112728, -72.552554,,,0,
128,128,"Greenleaves Drive",,  42.365369, -72.535493,,,0,
1280,1280,"Dwight / Grosvenor",,  42.112205, -72.599751,,,0,
1281,1281,"MLK Community Center",,  42.112560, -72.560701,,,0,
1283,1283,"Wilbraham / Reed",,  42.112477, -72.554327,,,0,
1284,1284,"Wilbraham / Rochelle",,  42.112466, -72.555041,,,0,
1285,1285,"Elm / Rochelle (2)",,  42.111716, -72.624919,,,0,
1287,1287,"Chestnut / Stafford",,  42.112063, -72.595756,,,0,
1288,1288,"Worthington / Kibbe",,  42.111931, -72.583079,,,0,
129,129,"Emerson Court (Out)",,  42.365114, -72.484263,,,0,
1290,1290,"Carew/Dwight (2)",,  42.111274, -72.598625,,,0,
12901,12901,"Emerson Court (In)",,  42.365067, -72.484289,,,0,
1291,1291,"Western Mass Hospital",,  42.110809, -72.701296,,,0,
1292,1292,"Wilbraham / Albemarle",,  42.112203, -72.556335,,,0,
1296,1296,"Main/Church",,  42.111217, -72.602844,,,0,
1297,1297,"AIC (Wilbraham Rd)",,  42.111985, -72.558451,,,0,
1299,1299,"State / Hayden",,  42.112121, -72.562043,,,0,
13,13,"Bull Hill Road",,  42.446533, -72.554709,,,0,
130,130,"Russell/Campus Plaza (Pride)",,  42.363756, -72.538718,,,0,
1300,1300,"American International College (2)",,  42.111898, -72.558506,,,0,
1301,1301,"Carew/Dwight (1)",,  42.111453, -72.599663,,,0,
1302,1302,"MLK Community Center (Wilbraham Road)",,  42.111739, -72.560206,,,0,
1304,1304,"Magazine / Bowdoin",,  42.111580, -72.576099,,,0,
1306,1306,"Worthington / Extract",,  42.111600, -72.583346,,,0,
1307,1307,"Magazine / Lincoln (1)",,  42.111571, -72.576228,,,0,
1309,1309,"Mason Square",,  42.111357, -72.564970,,,0,
131,131,"Gatehouse Road (Out)",,  42.363345, -72.488541,,,0,
13101,13101,"Gatehouse Road (In)",,  42.363303, -72.488333,,,0,
1311,1311,"Wilbraham / Colton (2)",,  42.111403, -72.562765,,,0,
1314,1314,"State / Eastern",,  42.111737, -72.563206,,,0,
1315,1315,"Wilbraham / Colton (1)",,  42.111217, -72.563230,,,0,
1316,1316,"Plainfield / John (opposite)",,  42.110689, -72.603458,,,0,
1317,1317,"West / Riverside",,  42.110581, -72.611304,,,0,
1319,1319,"Plainfield / John",,  42.110573, -72.603509,,,0,
132,132,"Memorial Drive (Out)",,  42.362315, -72.520845,,,0,
1320,1320,"Worthington / Sackett (1)",,  42.110209, -72.585151,,,0,
1321,1321,"Worthington / Sackett (3)",,  42.110556, -72.584932,,,0,
1322,1322,"West / Us Hwy 20",,  42.110362, -72.611267,,,0,
1323,1323,"Mason Square (Inbound)",,  42.110691, -72.567249,,,0,
1325,1325,"Magazine / Lincoln (3)",,  42.110543, -72.574992,,,0,
1326,1326,"Magazine / Lincoln (2)",,  42.110734, -72.575312,,,0,
1327,1327,"Mason Square",,  42.110482, -72.567104,,,0,
1328,1328,"State/Thompson",,  42.110224, -72.569677,,,0,
1329,1329,"Elm / Field",,  42.109836, -72.624825,,,0,
133,133,"Memorial Drive (In)",,  42.362615, -72.520705,,,0,
1330,1330,"Bay / Saint James (2)",,  42.110203, -72.573587,,,0,
1331,1331,"Bay / Saint James (1)",,  42.110140, -72.573838,,,0,
1332,1332,"State/Hancock",,  42.110089, -72.569513,,,0,
1334,1334,"Main/Carew",,  42.109751, -72.601001,,,0,
1335,1335,"Main / St. George (1)",,  42.109784, -72.601440,,,0,
1336,1336,"Elm / Elmwood",,  42.109539, -72.624337,,,0,
1338,1338,"Hancock / State",,  42.109632, -72.568841,,,0,
1339,1339,"State/Stebbins",,  42.109732, -72.571653,,,0,
134,134,"Rolling Green Apts (Out)",,  42.362898, -72.488774,,,0,
1340,1340,"State / St James",,  42.109597, -72.573353,,,0,
1341,1341,"State / Orleans",,  42.109477, -72.573123,,,0,
1345,1345,"Springfield / Mountain (1)",,  42.107765, -72.703482,,,0,
1346,1346,"Worthington / Worthington",,  42.108930, -72.586669,,,0,
1347,1347,"Springfield / Planet Fitness Dr",,  42.110551, -72.710005,,,0,
135,135,"Rolling Green Apts (In)",,  42.362228, -72.488033,,,0,
1350,1350,"Technology Park",,  42.108868, -72.575445,,,0,
1351,1351,"Hancock / Monroe",,  42.108941, -72.568824,,,0,
1352,1352,"Westfield Walmart",,  42.107441, -72.708162,,,0,
1353,1353,"Westfield / Old Westfield",,  42.107435, -72.688634,,,0,
1354,1354,"Worthington / Spring (1)",,  42.108444, -72.587384,,,0,
1355,1355,"Elm / Mosher",,  42.108008, -72.623747,,,0,
1356,1356,"Westfield / Old Westfield",,  42.107466, -72.687480,,,0,
1357,1357,"Worthington / Spring (2)",,  42.108242, -72.587468,,,0,
1358,1358,"State / Walnut",,  42.108364, -72.576042,,,0,
1359,1359,"Westford / Middlesex (1)",,  42.108373, -72.552241,,,0,
136,136,"Russell/Russell (Staples)",,  42.361221, -72.543786,,,0,
1360,1360,"Norfolk / Westford Circle",,  42.108509, -72.549426,,,0,
1361,1361,"Westford / Middlesex (2)",,  42.108293, -72.552490,,,0,
1363,1363,"Westford / Albemarle",,  42.108094, -72.555353,,,0,
1365,1365,"Westford / Braddock",,  42.107981, -72.554659,,,0,
1366,1366,"Westford / Gunn (2)",,  42.107971, -72.558282,,,0,
1367,1367,"Westfield / Nelson (1)",,  42.107030, -72.648359,,,0,
1369,1369,"Westford / Massachusetts (2)",,  42.107933, -72.557054,,,0,
137,137,"Russell/Rte 9 (Holiday Inn Express)",,  42.359993, -72.546735,,,0,
1371,1371,"Elm / Westfield",,  42.107225, -72.622693,,,0,
1372,1372,"Hancock / Quincy",,  42.107699, -72.568457,,,0,
1374,1374,"Westfield / Nelson (2)",,  42.106891, -72.648672,,,0,
1375,1375,"Westford / Massachusetts (1)",,  42.107686, -72.557520,,,0,
1376,1376,"Westfield / Woodmont",,  42.106801, -72.650215,,,0,
1377,1377,"Walnut / State (2)",,  42.107603, -72.576654,,,0,
1378,1378,"Westfield / Cedar (1)",,  42.106814, -72.645425,,,0,
1379,1379,"Westfield / Elm",,  42.106899, -72.623708,,,0,
138,138,"Logtown Road (In)",,  42.356848, -72.482410,,,0,
1380,1380,"Elm / Westfield",,  42.106806, -72.622938,,,0,
1381,1381,"Walnut / State (1)",,  42.107338, -72.576106,,,0,
1382,1382,"Westfield / Van Horn",,  42.106546, -72.650924,,,0,
1383,1383,"Westfield / Cedar (2)",,  42.106605, -72.645114,,,0,
1385,1385,"Westfield / Talcott",,  42.106419, -72.652566,,,0,
1386,1386,"Westford / Gunn (1)",,  42.107204, -72.558270,,,0,
1387,1387,"Commerce High School (opposite)",,  42.107198, -72.578774,,,0,
1388,1388,"Westfield / Harwich",,  42.106248, -72.652764,,,0,
139,139,"Logtown Road (Out)",,  42.356496, -72.481960,,,0,
1390,1390,"Park / Lathrop",,  42.106485, -72.618961,,,0,
1391,1391,"Main / Park",,  42.106486, -72.616451,,,0,
1392,1392,"Westfield / Van Deene (3)",,  42.106296, -72.625117,,,0,
1395,1395,"Worthington / Chestnut (1)",,  42.106544, -72.589497,,,0,
1396,1396,"Park / Main",,  42.106125, -72.617865,,,0,
1398,1398,"Worthington / Chestnut (2)",,  42.106470, -72.589755,,,0,
1399,1399,"Main / Bliss",,  42.106236, -72.615918,,,0,
14,14,"Laurenitis Farm Stand (Out)",,  42.442226, -72.551334,,,0,
140,140,"Hampshire Mall",,  42.355901, -72.550130,,,0,
1400,1400,"Middlesex / King",,  42.106793, -72.551351,,,0,
1401,1401,"Walnut / Union (2)",,  42.106525, -72.575050,,,0,
1402,1402,"Hancock / Tyler",,  42.106518, -72.568220,,,0,
1403,1403,"Westfield / Maple (2)",,  42.105797, -72.642914,,,0,
1404,1404,"Westfield / Van Deene (1)",,  42.105934, -72.626740,,,0,
1405,1405,"Walnut / Union (1)",,  42.106470, -72.574827,,,0,
1406,1406,"Westfield / Maple (1)",,  42.105849, -72.642742,,,0,
1407,1407,"Westfield / Altamont",,  42.105595, -72.659408,,,0,
1408,1408,"Westfield / Ely",,  42.105560, -72.658029,,,0,
1409,1409,"Park / Elm",,  42.105957, -72.620050,,,0,
1411,1411,"Westfield / Van Deene (2)",,  42.105830, -72.626649,,,0,
1412,1412,"Westfield / Thompson",,  42.105431, -72.660999,,,0,
1413,1413,"Conservatory of the Arts",,  42.105812, -72.580639,,,0,
1414,1414,"Westfield / Brookline",,  42.105424, -72.656782,,,0,
1416,1416,"Taylor / Dwight",,  42.105989, -72.591457,,,0,
1417,1417,"Westford / King",,  42.106339, -72.558240,,,0,
1418,1418,"Walnut / Oak (2)",,  42.105671, -72.573789,,,0,
1419,1419,"Hancock / Pendleton",,  42.105871, -72.568207,,,0,
142,142,"Mountain Farms Mall",,  42.355389, -72.552008,,,0,
1421,1421,"King / Westford",,  42.105907, -72.558373,,,0,
1423,1423,"Walnut / Oak (1)",,  42.105756, -72.573762,,,0,
1424,1424,"King / Wilbraham (2)",,  42.105811, -72.559774,,,0,
1426,1426,"King / Wilbraham (1)",,  42.105736, -72.559858,,,0,
1427,1427,"Westfield / Silver (1)",,  42.104973, -72.641055,,,0,
1428,1428,"Park / Union",,  42.105137, -72.619800,,,0,
1429,1429,"King / Logan",,  42.105644, -72.561248,,,0,
143,143,"Leeds",,  42.353517, -72.699925,,,0,
1431,1431,"Westfield / Laurel",,  42.104687, -72.663463,,,0,
1432,1432,"Westfield / Mercury (1)",,  42.104910, -72.629831,,,0,
1433,1433,"Westfield / Sherwood",,  42.104519, -72.664843,,,0,
1434,1434,"King / Logan",,  42.105555, -72.561347,,,0,
1436,1436,"Westfield / Beverly Hills",,  42.104411, -72.672537,,,0,
1437,1437,"Main / Fairview (2)",,  42.104848, -72.614090,,,0,
1438,1438,"Westfield / Silver (2)",,  42.104677, -72.640719,,,0,
1439,1439,"Westfield / Sibley",,  42.104332, -72.675375,,,0,
144,144,"Russell/Russell (The Stables)",,  42.354658, -72.557221,,,0,
1440,1440,"King / Eastern (2)",,  42.105409, -72.563263,,,0,
1441,1441,"Westfield / Ohio (1)",,  42.104409, -72.669733,,,0,
1442,1442,"Westfield / Mercury (2)",,  42.104872, -72.629625,,,0,
1443,1443,"Main / Fairview (1)",,  42.104897, -72.613932,,,0,
1444,1444,"Westfield / Hathorne",,  42.104188, -72.676169,,,0,
1445,1445,"State/Spring",,  42.105141, -72.582035,,,0,
1446,1446,"King / Merrick (2)",,  42.105263, -72.564538,,,0,
1447,1447,"Westfield / Ohio (2)",,  42.104219, -72.669664,,,0,
1448,1448,"Westfield / Poplar",,  42.104225, -72.666762,,,0,
1449,1449,"King / Merrick (1)",,  42.105170, -72.564571,,,0,
145,145,"Mill Lane (In)",,  42.354946, -72.520665,,,0,
1451,1451,"King and Hancock",,  42.104908, -72.567533,,,0,
1452,1452,"King / Hancock",,  42.104823, -72.567610,,,0,
1453,1453,"608 Westfield St",,  42.104009, -72.633681,,,0,
1454,1454,"State / School",,  42.104680, -72.582416,,,0,
1455,1455,"Walnut / King",,  42.104803, -72.572363,,,0,
1456,1456,"Westfield / Pleasant",,  42.103730, -72.634536,,,0,
1457,1457,"Dwight / Harrison",,  42.104095, -72.589053,,,0,
1458,1458,"Westfield / Summit",,  42.103566, -72.636144,,,0,
146,146,"Russell/Russell (Whole Foods)",,  42.354684, -72.556942,,,0,
1463,1463,"Main / Church (2)",,  42.103743, -72.612427,,,0,
1464,1464,"Main / Church (1)",,  42.103664, -72.612095,,,0,
1466,1466,"Worthington / Main",,  42.103895, -72.592674,,,0,
1467,1467,"Main / Worthington",,  42.103686, -72.592632,,,0,
147,147,"Columbia Drive (In)",,  42.354207, -72.521938,,,0,
1470,1470,"Walnut / James",,  42.104284, -72.571757,,,0,
1474,1474,"Main / Bridge",,  42.103273, -72.591800,,,0,
1475,1475,"Main and Harrison",,  42.103220, -72.589525,,,0,
1476,1476,"Main / James",,  42.102848, -72.610971,,,0,
1477,1477,"Main / Cottage",,  42.102682, -72.610431,,,0,
1478,1478,"Walnut / Queen",,  42.103550, -72.570438,,,0,
1479,1479,"State / Chestnut",,  42.102833, -72.585017,,,0,
148,148,"Old Belchertown Road",,  42.353477, -72.476203,,,0,
1480,1480,"Walnut / Lebanon (2)",,  42.102627, -72.569249,,,0,
1481,1481,"Main/Harrison",,  42.102477, -72.590028,,,0,
1483,1483,"Walnut/Manhattan",,  42.100533, -72.566195,,,0,
1484,1484,"Mosley / Main",,  42.102003, -72.609081,,,0,
1487,1487,"Maple / High",,  42.102025, -72.582472,,,0,
1488,1488,"Main / George",,  42.101797, -72.608830,,,0,
1492,1492,"Walnut / Brigham",,  42.101569, -72.567722,,,0,
1494,1494,"Maple / Union (1)",,  42.101598, -72.581861,,,0,
1495,1495,"Court Square",,  42.101490, -72.588264,,,0,
1496,1496,"Walnut / Alden",,  42.101687, -72.567723,,,0,
1498,1498,"Maple / Union (2)",,  42.101382, -72.581365,,,0,
1499,1499,"Walnut / Ashley",,  42.101013, -72.566723,,,0,
15,15,"Laurenitis Farm Stand (In)",,  42.442171, -72.551495,,,0,
150,150,"VA Medical Center",,  42.351296, -72.682177,,,0,
1500,1500,"Main / Allen (1)",,  42.100279, -72.605630,,,0,
1501,1501,"Main / Allen (2)",,  42.100411, -72.606055,,,0,
1503,1503,"Main/Stockbridge",,  42.100371, -72.586089,,,0,
1504,1504,"Maple / Avon (1)",,  42.100053, -72.579667,,,0,
1505,1505,"Main/Howard",,  42.100168, -72.585993,,,0,
1506,1506,"Maple / Avon (2)",,  42.099977, -72.579233,,,0,
1507,1507,"Walnut / Crosby - Across",,  42.099900, -72.565081,,,0,
1508,1508,"Sterns / Central",,  42.099780, -72.576333,,,0,
1509,1509,"River / Spring",,  42.099206, -72.634339,,,0,
151,151,"Mill Valley Apts (Out)",,  42.351650, -72.526780,,,0,
1511,1511,"Central / Sterns",,  42.099653, -72.576471,,,0,
1512,1512,"Central / Cedar (1)",,  42.099640, -72.575066,,,0,
1513,1513,"River/King",,  42.098835, -72.634972,,,0,
1514,1514,"Central / Cedar (2)",,  42.099582, -72.574688,,,0,
1515,1515,"Main / Chapin",,  42.099197, -72.603907,,,0,
1516,1516,"Main / Park",,  42.099431, -72.584707,,,0,
1518,1518,"River / King",,  42.098720, -72.635454,,,0,
152,152,"Mill Valley Apts (In)",,  42.351532, -72.526237,,,0,
1520,1520,"Central / Pine (1)",,  42.099084, -72.573182,,,0,
1521,1521,"Central / Pine (2)",,  42.099228, -72.573362,,,0,
1522,1522,"Walnut / High",,  42.098405, -72.632715,,,0,
1524,1524,"Main / Bridge W Spfld (1)",,  42.098415, -72.602756,,,0,
1528,1528,"Main / Bridge W Spfld (2)",,  42.098452, -72.603043,,,0,
1529,1529,"Main / William",,  42.098305, -72.583487,,,0,
153,153,"Southpoint Apts",,  42.350472, -72.530259,,,0,
1530,1530,"Main / William",,  42.098592, -72.583593,,,0,
1531,1531,"Central / Beech",,  42.098305, -72.570699,,,0,
1532,1532,"Walnut / Hickory",,  42.098270, -72.564018,,,0,
1534,1534,"Main / New Bridge",,  42.097828, -72.602157,,,0,
1537,1537,"Central / Spruce",,  42.098008, -72.569454,,,0,
1538,1538,"Central / Spruce",,  42.098029, -72.569780,,,0,
1539,1539,"Bridge / High",,  42.097228, -72.635321,,,0,
154,154,"Mayflower Apts (In)",,  42.350719, -72.470170,,,0,
1540,1540,"Walnut / Ottawa (2)",,  42.097010, -72.632224,,,0,
1542,1542,"Main / Margaret",,  42.097502, -72.582761,,,0,
1543,1543,"Walnut / Ottawa (1)",,  42.096944, -72.632120,,,0,
1544,1544,"Memorial / Main",,  42.096941, -72.599293,,,0,
1545,1545,"Main / Morris",,  42.097078, -72.582212,,,0,
1546,1546,"1 Stop Plaza",,  42.097157, -72.566592,,,0,
1547,1547,"Rifle / Allen",,  42.097203, -72.564223,,,0,
1548,1548,"Memorial / Main",,  42.096798, -72.599221,,,0,
1549,1549,"Central / Hancock",,  42.097118, -72.566615,,,0,
1551,1551,"Central / Rifle",,  42.096870, -72.565525,,,0,
1552,1552,"Memorial / New Bridge",,  42.096292, -72.606849,,,0,
1554,1554,"Allen / Malden (1)",,  42.096636, -72.562031,,,0,
1555,1555,"Allen / Malden (2)",,  42.096554, -72.562287,,,0,
1557,1557,"Walnut / Maple",,  42.095833, -72.631985,,,0,
1559,1559,"Bridge / Maple",,  42.095548, -72.633911,,,0,
156,156,"Mayflower Apts (Out)",,  42.350474, -72.470064,,,0,
1560,1560,"White / Revere (2)",,  42.096003, -72.560793,,,0,
1561,1561,"White / Revere (1)",,  42.096108, -72.560807,,,0,
1562,1562,"Main/Loring",,  42.095933, -72.581744,,,0,
1565,1565,"Main / Adams (1)",,  42.095639, -72.581501,,,0,
1566,1566,"Riverbend Medical Center",,  42.096269, -72.502986,,,0,
1567,1567,"Big Y - Allen/Cooley Streets",,  42.096208, -72.500006,,,0,
157,157,"The Boulders Apts",,  42.349066, -72.528875,,,0,
1570,1570,"Wingate",,  42.096074, -72.504504,,,0,
1571,1571,"Century Plaza",,  42.095489, -72.605078,,,0,
1573,1573,"Maple / Highland",,  42.094532, -72.634601,,,0,
1576,1576,"Memorial / Lowell (2)",,  42.094430, -72.614648,,,0,
1577,1577,"Bicentennial Highway (1)",,  42.095615, -72.508993,,,0,
1578,1578,"Memorial / Lowell (1)",,  42.094494, -72.613938,,,0,
1579,1579,"Maple / Moore",,  42.094190, -72.635086,,,0,
1580,1580,"Walnut/Dwight",,  42.094130, -72.631323,,,0,
1581,1581,"White / Grand (1)",,  42.094698, -72.559054,,,0,
1582,1582,"Main/Montpelier",,  42.094456, -72.581101,,,0,
1584,1584,"White / Grand (2)",,  42.094676, -72.558826,,,0,
1585,1585,"Main / Gardner",,  42.094303, -72.581180,,,0,
1586,1586,"Memorial / Bosworth (2)",,  42.093964, -72.616077,,,0,
1587,1587,"Memorial / Bosworth (1)",,  42.093893, -72.615823,,,0,
1588,1588,"Allen/Bicentennial",,  42.094832, -72.510038,,,0,
1589,1589,"Allen/Bicentennial (Inbound)",,  42.094762, -72.509603,,,0,
159,159,"Russell / Spruce Hill (W)",,  42.347080, -72.572624,,,0,
1591,1591,"Allen / Talmadge",,  42.094696, -72.513752,,,0,
1593,1593,"Allen/Bridlepath",,  42.094656, -72.514616,,,0,
1594,1594,"Allen/Wilshire (Inbound)",,  42.094323, -72.508260,,,0,
1595,1595,"Memorial / East (2)",,  42.093340, -72.618081,,,0,
1597,1597,"Allen / Wilshire",,  42.094298, -72.508419,,,0,
1599,1599,"Memorial / East (1)",,  42.093234, -72.617985,,,0,
160,160,"Russell / Spruce Hill (E)",,  42.347125, -72.572371,,,0,
1600,1600,"Main/Marble",,  42.093599, -72.580790,,,0,
1601,1601,"Walnut / Winthrop",,  42.093036, -72.630928,,,0,
1602,1602,"Mill / Maple",,  42.093682, -72.571590,,,0,
1603,1603,"Orange / Palm (2)",,  42.093680, -72.553701,,,0,
1604,1604,"Orange / Palm (1)",,  42.093724, -72.553912,,,0,
1606,1606,"Exposition / Memorial",,  42.093049, -72.619313,,,0,
1608,1608,"Allen / Alberta (2)",,  42.093591, -72.552813,,,0,
1609,1609,"Allen / Alberta (1)",,  42.093509, -72.552037,,,0,
161,161,"Russell / Nashua",,  42.345759, -72.575463,,,0,
1610,1610,"Orange / Claremont",,  42.093398, -72.555450,,,0,
1612,1612,"Allen/Allen Park (Inbound)",,  42.093796, -72.505894,,,0,
1613,1613,"White / Orange (2)",,  42.093677, -72.557434,,,0,
1614,1614,"Dickinson / Locust",,  42.093304, -72.569212,,,0,
1615,1615,"Mill / Hancock",,  42.093495, -72.569136,,,0,
1616,1616,"White / Orange (1)",,  42.093331, -72.557147,,,0,
1617,1617,"Orange / Thayer (1)",,  42.093326, -72.556414,,,0,
1618,1618,"Memorial / Exposition",,  42.092681, -72.620409,,,0,
1619,1619,"Allen / Allen Park",,  42.093721, -72.505898,,,0,
162,162,"Russell/Pine Hill",,  42.345976, -72.574805,,,0,
1620,1620,"Memorial / Heywood",,  42.092652, -72.621234,,,0,
1621,1621,"Orange / Thayer (2)",,  42.093254, -72.556420,,,0,
1622,1622,"Sumner / Bairdcrest",,  42.093362, -72.522175,,,0,
1623,1623,"Mill / Ramp",,  42.092829, -72.574527,,,0,
1624,1624,"Orange / Wareham (1)",,  42.092969, -72.558609,,,0,
1625,1625,"Orange / Wareham (2)",,  42.092925, -72.558524,,,0,
1627,1627,"Locust / Darwell",,  42.092711, -72.570621,,,0,
1628,1628,"Orange / Wigwam (2)",,  42.092753, -72.567490,,,0,
1629,1629,"Pine / Mill",,  42.092174, -72.575107,,,0,
163,163,"Main / State Hwy 9",,  42.344365, -72.682348,,,0,
1630,1630,"Orange / Earl",,  42.092684, -72.560365,,,0,
1631,1631,"Maple / Orchard",,  42.091869, -72.637114,,,0,
1632,1632,"Orange / Wigwam (1)",,  42.092666, -72.566593,,,0,
1633,1633,"Allen / Corcoran",,  42.093000, -72.520772,,,0,
1635,1635,"Locust / Darwell",,  42.092538, -72.571194,,,0,
1636,1636,"Orange / Revere",,  42.092626, -72.560305,,,0,
164,164,"Warren Wright Road (Out)",,  42.345610, -72.467342,,,0,
1640,1640,"Orange / Malden",,  42.092428, -72.561993,,,0,
1641,1641,"Orange / Oakland",,  42.092343, -72.562114,,,0,
1642,1642,"Orange / Euclid (1)",,  42.092265, -72.564870,,,0,
1643,1643,"Memorial / Avenue Of The States",,  42.091733, -72.623579,,,0,
1644,1644,"Sumner / Hudson",,  42.092615, -72.524936,,,0,
1646,1646,"Orange / Euclid (2)",,  42.092179, -72.564983,,,0,
1648,1648,"Memorial / Circuit",,  42.091855, -72.623643,,,0,
1649,1649,"Allen / Harbour",,  42.092533, -72.522589,,,0,
165,165,"Warren Wright Road (In)",,  42.345509, -72.467128,,,0,
1650,1650,"Dickinson / Wigwam",,  42.091988, -72.567991,,,0,
1651,1651,"Dickinson / Sachem",,  42.091857, -72.567749,,,0,
1652,1652,"Main/York",,  42.092008, -72.580277,,,0,
1653,1653,"Locust / Woodside (1)",,  42.091890, -72.572459,,,0,
1654,1654,"Sumner / Pinecrest",,  42.092254, -72.526760,,,0,
1655,1655,"Main/Acushnet",,  42.091716, -72.579726,,,0,
1656,1656,"Mill / Pine",,  42.091789, -72.575382,,,0,
1657,1657,"Eastern States Exposition",,  42.091315, -72.624833,,,0,
1658,1658,"White / Dawson (2)",,  42.091918, -72.555055,,,0,
1659,1659,"Locust / Woodside (2)",,  42.091719, -72.572552,,,0,
166,166,"Crocker Farm School (In)",,  42.347398, -72.520148,,,0,
1660,1660,"Sumner / Emerson",,  42.092069, -72.527678,,,0,
1661,1661,"Five Town Plaza",,  42.093849, -72.500628,,,0,
1662,1662,"Stop and Shop - Allen/Cooley",,  42.091286, -72.498935,,,0,
1663,1663,"Allen / Manor",,  42.091850, -72.525263,,,0,
1664,1664,"Sumner/Chalmers",,  42.091781, -72.529194,,,0,
1665,1665,"Locust / Woodside (3)",,  42.091349, -72.573502,,,0,
1666,1666,"Maple / Oak Hill",,  42.090657, -72.638019,,,0,
1667,1667,"Locust / Woodside (4)",,  42.091222, -72.573508,,,0,
1668,1668,"White / Mansfield",,  42.091154, -72.554004,,,0,
1669,1669,"Walnut/Springfield",,  42.090353, -72.629503,,,0,
167,167,"Crocker Farm School (Out)",,  42.344973, -72.520549,,,0,
1670,1670,"Mill / Locust (N)",,  42.090679, -72.577215,,,0,
1671,1671,"Mill / Locust",,  42.090742, -72.577781,,,0,
1672,1672,"Sumner/Allen",,  42.091036, -72.533094,,,0,
1673,1673,"White / Scott",,  42.090898, -72.553796,,,0,
1674,1674,"Dickinson/Euclid",,  42.090782, -72.566748,,,0,
1675,1675,"Allen and Harkness",,  42.091076, -72.530254,,,0,
1676,1676,"Dickinson / Euclid",,  42.090680, -72.566353,,,0,
1677,1677,"Walnut / Springfield",,  42.089845, -72.629119,,,0,
1678,1678,"Sumner / Garland",,  42.090710, -72.534073,,,0,
1679,1679,"Maple / Begley (2)",,  42.089555, -72.638690,,,0,
168,168,"Russell/East (RMV)",,  42.343780, -72.579472,,,0,
1680,1680,"Maple / Begley (1)",,  42.089469, -72.638826,,,0,
1681,1681,"Dickinson / Hall (2)",,  42.090163, -72.565103,,,0,
1682,1682,"Roosevelt/Sumner",,  42.090389, -72.536643,,,0,
1683,1683,"Dickinson / Hall (1)",,  42.090084, -72.565251,,,0,
1684,1684,"White / Stratford",,  42.090141, -72.552759,,,0,
1685,1685,"White / Ainsworth",,  42.090122, -72.552590,,,0,
1686,1686,"Sumner / Eloise",,  42.090044, -72.537591,,,0,
1687,1687,"Belmont/Leyfred",,  42.089695, -72.575419,,,0,
1688,1688,"Belmont / Leyfred",,  42.089630, -72.575615,,,0,
1689,1689,"Dickinson / Oakland",,  42.089709, -72.563286,,,0,
169,169,"Russell / East",,  42.343140, -72.581431,,,0,
1690,1690,"Sumner / Eddywood",,  42.089959, -72.538858,,,0,
1691,1691,"Sumner / Howes",,  42.089715, -72.539323,,,0,
1692,1692,"Fort Pleasant at 36",,  42.089396, -72.576817,,,0,
1694,1694,"Sumner/Rencelau",,  42.089553, -72.540918,,,0,
1695,1695,"Belmont / Woodside (2)",,  42.089053, -72.573822,,,0,
1696,1696,"Dickinson / Kenwood",,  42.089250, -72.562085,,,0,
1697,1697,"Sumner / Castle",,  42.089387, -72.541095,,,0,
1698,1698,"Belmont / Woodside (1)",,  42.089193, -72.573666,,,0,
1699,1699,"Fort Pleasant / Blake Hill",,  42.089017, -72.576431,,,0,
17,17,"Plumtree Road (In)",,  42.431577, -72.543874,,,0,
170,170,"Hampshire Plaza/ Big Y",,  42.340453, -72.642508,,,0,
1700,1700,"Belmont / Bellevue (1)",,  42.088776, -72.571803,,,0,
1701,1701,"White / Kimberly (2)",,  42.088852, -72.550844,,,0,
1702,1702,"Sumner/Perkins",,  42.088906, -72.544249,,,0,
1703,1703,"Belmont / Bellevue (2)",,  42.088588, -72.571276,,,0,
1704,1704,"White / Kimberly (1)",,  42.088738, -72.550828,,,0,
1705,1705,"Fort Pleasant / Leete",,  42.088422, -72.576262,,,0,
1706,1706,"Sumner / Eckington",,  42.088663, -72.544771,,,0,
1707,1707,"Dickinson / Alderman (1)",,  42.088413, -72.560362,,,0,
1708,1708,"Fort Pleasant/Forest Park Avenue",,  42.088245, -72.575897,,,0,
1709,1709,"Dickinson / Alderman (2)",,  42.088322, -72.560083,,,0,
171,171,"Russell / Middle (W)",,  42.342357, -72.588675,,,0,
1710,1710,"Belmont/Forest",,  42.088088, -72.568629,,,0,
1711,1711,"Belmont/Keith",,  42.088170, -72.568523,,,0,
1712,1712,"Sumner / Rittenhouse",,  42.088242, -72.547667,,,0,
1713,1713,"Springfield / Rowley",,  42.087184, -72.640828,,,0,
1715,1715,"Sumner/White",,  42.087956, -72.549189,,,0,
1716,1716,"Sumner/Irvington",,  42.087910, -72.548592,,,0,
1717,1717,"Belmont/Litchfield",,  42.087460, -72.565223,,,0,
1718,1718,"Belmont/Oakland",,  42.087450, -72.564611,,,0,
1719,1719,"Dickinson / Burlington (1)",,  42.087466, -72.559163,,,0,
172,172,"Russell / Middle (E)",,  42.342211, -72.589355,,,0,
1720,1720,"Dickinson / Burlington (2)",,  42.087288, -72.558792,,,0,
1721,1721,"White / Priscilla (1)",,  42.087395, -72.548984,,,0,
1722,1722,"Sumner/Herman",,  42.087341, -72.552360,,,0,
1723,1723,"White / Priscilla (2)",,  42.087341, -72.548778,,,0,
1725,1725,"Sumner / Bryant",,  42.087171, -72.552444,,,0,
1726,1726,"Sumner / Pomona",,  42.086977, -72.554229,,,0,
1727,1727,"Belmont / Beaumont",,  42.086972, -72.562004,,,0,
1728,1728,"Fort Pleasant / Edgeland",,  42.086653, -72.575146,,,0,
1729,1729,"Fort Pleasant/Chase",,  42.086631, -72.574906,,,0,
173,173,"Russell / State Hwy 9",,  42.342025, -72.596076,,,0,
1730,1730,"Belmont/Beaumont",,  42.086675, -72.561018,,,0,
1733,1733,"Sumner / Ormond",,  42.086654, -72.555090,,,0,
1734,1734,"Cooley/Caitlin(Opposite)",,  42.087085, -72.502848,,,0,
1735,1735,"Dickinson / Sumner (1)",,  42.086443, -72.558047,,,0,
1736,1736,"Dickinson / Sumner (3)",,  42.086816, -72.558284,,,0,
1737,1737,"Belmont / Ramp (2)",,  42.086360, -72.559282,,,0,
1738,1738,"Sumner / Dickinson",,  42.086362, -72.557520,,,0,
1739,1739,"Springfield / Royal",,  42.085421, -72.643025,,,0,
174,174,"Russell / West",,  42.341962, -72.594427,,,0,
1740,1740,"White / Morningside",,  42.086253, -72.547283,,,0,
1741,1741,"State Hwy 83 / Belmont",,  42.085987, -72.557185,,,0,
1743,1743,"Springfield / Kristen",,  42.085122, -72.643280,,,0,
1744,1744,"Canon Circle #1",,  42.086411, -72.504814,,,0,
1745,1745,"Canon Circle #3",,  42.086325, -72.504274,,,0,
1746,1746,"Dickinson / Sumner (2)",,  42.085866, -72.557470,,,0,
1747,1747,"Belmont/Commonwealth(opposite)",,  42.085879, -72.555945,,,0,
1748,1748,"White / Longfellow",,  42.085798, -72.546822,,,0,
1749,1749,"Sumner / Beaumont",,  42.085673, -72.560924,,,0,
175,175,"Russell / Elmwood",,  42.340929, -72.601370,,,0,
1750,1750,"Belmont / Ormond",,  42.085586, -72.554978,,,0,
1751,1751,"Sumner / Parkwood",,  42.085530, -72.560744,,,0,
1752,1752,"White / Larkspur",,  42.085617, -72.546377,,,0,
1753,1753,"Belmont/Daytona",,  42.085290, -72.552728,,,0,
1754,1754,"Sumner / Oakland",,  42.085158, -72.562815,,,0,
1755,1755,"Belmont / Hollywood",,  42.085213, -72.553059,,,0,
1756,1756,"Sumner/Oakland",,  42.085097, -72.563871,,,0,
1757,1757,"Belmont / Orlando",,  42.085107, -72.551678,,,0,
1758,1758,"Sumner/Sumner Terrace",,  42.084842, -72.565176,,,0,
1759,1759,"Springfield / Wilson",,  42.083986, -72.644837,,,0,
176,176,"Russell / Elmwood",,  42.340704, -72.601495,,,0,
1760,1760,"Dickinson / Trenton",,  42.084870, -72.556442,,,0,
1761,1761,"Belmont/Itendale",,  42.084863, -72.551020,,,0,
1762,1762,"Dickinson / Trenton",,  42.084834, -72.556244,,,0,
1763,1763,"Belmont/Bryant",,  42.084912, -72.550567,,,0,
1764,1764,"Fort Pleasant / Warner (2)",,  42.084493, -72.574280,,,0,
1765,1765,"Forest Park Entrance",,  42.084572, -72.565822,,,0,
1766,1766,"Sumner / Greenleaf",,  42.084432, -72.567277,,,0,
1767,1767,"Springfield / Sheri",,  42.083569, -72.645230,,,0,
1768,1768,"Belmont/Longfellow",,  42.084424, -72.547955,,,0,
1769,1769,"Belmont/Sylvan",,  42.084324, -72.548116,,,0,
177,177,"Meadowbrook Apartments (1)",,  42.340227, -72.660186,,,0,
1770,1770,"Sumner / Forest Park",,  42.083933, -72.569153,,,0,
1771,1771,"White / Blaine",,  42.084020, -72.544341,,,0,
1772,1772,"Belmont/Kenwood Park",,  42.083976, -72.544122,,,0,
1773,1773,"Dickinson / Trafton (2)",,  42.083760, -72.555178,,,0,
1774,1774,"Sumner/Randolph",,  42.083514, -72.572004,,,0,
1775,1775,"Belmont/Fountain(opposite)",,  42.083760, -72.544442,,,0,
1776,1776,"Sumner/Firglade",,  42.083475, -72.571413,,,0,
1777,1777,"Belmont / Fountain",,  42.083690, -72.544656,,,0,
1778,1778,"Dickinson / Trafton (1)",,  42.083614, -72.555175,,,0,
1779,1779,"Fort Pleasant / Sumner",,  42.083370, -72.573690,,,0,
178,178,"Russell/Bay",,  42.339935, -72.606714,,,0,
1780,1780,"Sumner / Beechwood",,  42.083156, -72.573131,,,0,
1782,1782,"Springfield / Cleveland",,  42.082306, -72.646940,,,0,
1783,1783,"Springfield / Chapin",,  42.082025, -72.647166,,,0,
1785,1785,"White/Webber",,  42.082427, -72.542180,,,0,
1786,1786,"Dickinson / Washington (1)",,  42.082299, -72.554770,,,0,
1787,1787,"Springfield / Shibley (2)",,  42.081140, -72.648451,,,0,
1788,1788,"Dickinson / Washington (2)",,  42.081974, -72.554605,,,0,
1789,1789,"White/Manitoba",,  42.082271, -72.541703,,,0,
179,179,"Pomeroy Lane (In)",,  42.340769, -72.519924,,,0,
1790,1790,"Springfield / Shibley (1)",,  42.080852, -72.648650,,,0,
1791,1791,"White/Sunapee",,  42.081809, -72.540698,,,0,
1792,1792,"Springfield / Line",,  42.080182, -72.649695,,,0,
1793,1793,"Dwight / White",,  42.081182, -72.540016,,,0,
1795,1795,"Dwight / Stanton",,  42.081045, -72.539903,,,0,
1796,1796,"Springfield / Letendre",,  42.079993, -72.649798,,,0,
1797,1797,"N. Main/Rosemont",,  42.080568, -72.537979,,,0,
1798,1798,"Main/Van Dyke",,  42.080224, -72.536930,,,0,
1799,1799,"Dickinson / Olmsted (2)",,  42.079967, -72.554280,,,0,
18,18,"Plumtree Road (Out)",,  42.431933, -72.543970,,,0,
180,180,"Meadowbrook Apartments (2)",,  42.339481, -72.660479,,,0,
1800,1800,"Main / Dorset",,  42.080090, -72.534910,,,0,
1801,1801,"Springfield / Hall",,  42.078896, -72.651370,,,0,
1802,1802,"Main/Gerrard",,  42.079838, -72.533717,,,0,
1803,1803,"Dickinson / Olmsted (1)",,  42.079679, -72.554353,,,0,
1804,1804,"Springfield / Mooreland",,  42.078679, -72.651510,,,0,
1805,1805,"Big Y - East Longmeadow",,  42.079763, -72.527634,,,0,
1806,1806,"Heritage Nursing Home",,  42.078879, -72.619404,,,0,
1807,1807,"Main/Lombard(opposite)",,  42.079449, -72.531856,,,0,
1808,1808,"Main / Lombard",,  42.079278, -72.531608,,,0,
1809,1809,"704 Springfield St",,  42.077901, -72.652666,,,0,
1810,1810,"Dwight / Irving",,  42.078598, -72.539621,,,0,
1811,1811,"Dickinson / Copeland",,  42.077901, -72.553954,,,0,
1812,1812,"Stop and Shop Drive (East Longmeadow)",,  42.077812, -72.527156,,,0,
1813,1813,"Dickinson / Texel",,  42.077479, -72.553998,,,0,
1814,1814,"Dwight / Hartwick (2)",,  42.077456, -72.539107,,,0,
1815,1815,"Springfield / Franklin",,  42.076389, -72.654499,,,0,
1816,1816,"Dwight / Hartwick (1)",,  42.077413, -72.539195,,,0,
1818,1818,"Springfield / Annable",,  42.076090, -72.655024,,,0,
1819,1819,"Dickinson / Elwood",,  42.076969, -72.553757,,,0,
182,182,"Meadowbrook Apartments (3)",,  42.339332, -72.660476,,,0,
1820,1820,"Springfield / Amherst",,  42.075225, -72.656166,,,0,
1821,1821,"Springfield / Hastings",,  42.074706, -72.656676,,,0,
1824,1824,"Springfield / Bessbrook",,  42.074136, -72.657407,,,0,
1825,1825,"Dwight / Fenimore",,  42.074989, -72.538842,,,0,
1826,1826,"Dwight/Fenimore",,  42.074934, -72.538732,,,0,
1829,1829,"Springfield / Agnoli",,  42.072957, -72.659112,,,0,
183,183,"Russell/Bay (Barn Shops)",,  42.339702, -72.607030,,,0,
1831,1831,"Main / Edward",,  42.072831, -72.614661,,,0,
1832,1832,"Dwight / Anglesea",,  42.073264, -72.538591,,,0,
1833,1833,"Main / Albert",,  42.072213, -72.614839,,,0,
1834,1834,"Dwight / Channing",,  42.073279, -72.538502,,,0,
1837,1837,"Country View Estates",,  42.070657, -72.678506,,,0,
1838,1838,"Dwight / Harper",,  42.070818, -72.538132,,,0,
184,184,"Pomeroy Lane (Out)",,  42.340322, -72.520184,,,0,
1841,1841,"Dwight / Boulder",,  42.070320, -72.537867,,,0,
1842,1842,"Springfield / Belvidere",,  42.068774, -72.667095,,,0,
1844,1844,"Springfield / Northwood",,  42.068382, -72.670088,,,0,
1845,1845,"Jamestown / Dickinson (Flag Stop)",,  42.069175, -72.554837,,,0,
1846,1846,"Main / Monroe (2)",,  42.068357, -72.615476,,,0,
1847,1847,"Main / Monroe (1)",,  42.068127, -72.615647,,,0,
1849,1849,"Springfield / Stop and Shop Dr",,  42.067291, -72.675172,,,0,
1850,1850,"Springfield / Agawam Jr High",,  42.067321, -72.674591,,,0,
1851,1851,"Jamestown / Yorktown (Flag Stop)",,  42.068396, -72.553714,,,0,
1852,1852,"Springfield / N Westfield",,  42.067034, -72.677324,,,0,
1853,1853,"Springfield / S Westfield",,  42.066902, -72.678083,,,0,
1856,1856,"Dwight / Putting Green",,  42.067618, -72.538572,,,0,
1857,1857,"Dwight/Putting Green (opposite)",,  42.067139, -72.538953,,,0,
1858,1858,"Williamsburg / Jamestown (Flag Stop)",,  42.067034, -72.552322,,,0,
1859,1859,"Longmeadow/Englewood",,  42.064729, -72.579237,,,0,
1862,1862,"Jewish House",,  42.064024, -72.551578,,,0,
1863,1863,"Pheasant Hill Apartments",,  42.062394, -72.692420,,,0,
1867,1867,"Longmeadow/Warren (Flag Stop)",,  42.062366, -72.579252,,,0,
1871,1871,"Longmeadow/Edgewood",,  42.059902, -72.579872,,,0,
1873,1873,"Agawam Ind. Park Drive Ext. / Unnamed",,  42.059190, -72.660262,,,0,
1875,1875,"Longmeadow/Chandler (2) (Flag Stop)",,  42.057861, -72.580487,,,0,
1876,1876,"Longmeadow/Emerson",,  42.057052, -72.581012,,,0,
1877,1877,"Longmeadow/Bliss",,  42.056749, -72.580925,,,0,
1878,1878,"Longmeadow/Greenacre (Flag Stop)",,  42.055480, -72.581667,,,0,
1879,1879,"Almgren / Gen Creighton W Abrams",,  42.054415, -72.658673,,,0,
1880,1880,"Longmeadow/York (Flag Stop)",,  42.054911, -72.581633,,,0,
1882,1882,"East Village Place",,  42.054144, -72.533583,,,0,
1883,1883,"Longmeadow/Longmeadow (Flag Stop)",,  42.054012, -72.582123,,,0,
1884,1884,"Redstone Nursing Home",,  42.050501, -72.532415,,,0,
1886,1886,"Longmeadow/Wms (S)",,  42.050655, -72.583019,,,0,
1887,1887,"Longmeadow/Chandler (1) (Flag Stop)",,  42.050151, -72.582937,,,0,
1889,1889,"Longmeadow/Birnie (Flag Stop)",,  42.045360, -72.584012,,,0,
189,189,"Bridge / Hatfield",,  42.338293, -72.648783,,,0,
1890,1890,"Longmeadow/Crescent (Flag Stop)",,  42.044156, -72.584205,,,0,
1892,1892,"Longmeadow/Longview (Flag Stop)",,  42.041817, -72.584268,,,0,
1893,1893,"Longmeadow/Summit (Flag Stop)",,  42.039260, -72.584198,,,0,
1894,1894,"Longmeadow/Summit (Flag Stop)",,  42.039762, -72.584004,,,0,
1896,1896,"Longmeadow/Nevins (Flag Stop)",,  42.031495, -72.581960,,,0,
1897,1897,"Longmeadow/Maple (1)",,  42.032970, -72.582416,,,0,
1898,1898,"Longmeadow/Maple (2)",,  42.032827, -72.582193,,,0,
1899,1899,"Longmeadow/Homestead (Flag Stop)",,  42.028199, -72.581470,,,0,
19,19,"Waterfield Farms (Out)",,  42.427014, -72.539958,,,0,
190,190,"Meadowbrook Apartments (4)",,  42.336673, -72.661158,,,0,
1900,1900,"Longmeadow/Lawnwood (1) (Flag Stop)",,  42.026759, -72.582450,,,0,
1901,1901,"Longmeadow/Lawnwood (2) (Flag Stop)",,  42.026572, -72.582488,,,0,
1902,1902,"Longmeadow / Enfield",,  42.025388, -72.583489,,,0,
1903,1903,"Longmeadow/Booth",,  42.024865, -72.583721,,,0,
1904,1904,"Homestead / Lower Westfield",,  42.175877, -72.648423,,,0,
1905,1905,"Main/St. George (2)",,  42.109143, -72.600812,,,0,
1906,1906,"Main/Boylston",,  42.107897, -72.599527,,,0,
1907,1907,"Main Street under I-291",,  42.107791, -72.599077,,,0,
1908,1908,"Main / Emery",,  42.106959, -72.598598,,,0,
1909,1909,"Springfield Post Office",,  42.106251, -72.597254,,,0,
191,191,"Meadowbrook Apartments (5)",,  42.337588, -72.661077,,,0,
1913,1913,"Liberty / Dwight (2)",,  42.108154, -72.593547,,,0,
1914,1914,"Liberty / Dwight (3)",,  42.108351, -72.593591,,,0,
1915,1915,"Chestnut / Liberty",,  42.108993, -72.592847,,,0,
1916,1916,"Chestnut / Congress",,  42.109898, -72.593817,,,0,
1917,1917,"Liberty / Chestnut (1)",,  42.108910, -72.592323,,,0,
1918,1918,"Liberty / Chestnut (2)",,  42.109255, -72.592023,,,0,
1919,1919,"Franklin / Liberty",,  42.110809, -72.592278,,,0,
192,192,"Forsander Apt.",,  42.337278, -72.670546,,,0,
1920,1920,"Dwight / Congress",,  42.108685, -72.595542,,,0,
1921,1921,"Dwight / Worthington",,  42.105154, -72.590660,,,0,
1922,1922,"Worthington / Stearns",,  42.104823, -72.591577,,,0,
194,194,"Jackson/Gleason (Hampshire Heights)",,  42.337121, -72.642698,,,0,
197,197,"North Street (In)",,  42.338528, -72.457430,,,0,
198,198,"North Street (Out)",,  42.338262, -72.457477,,,0,
199,199,"Meadowbrook Apartments / Straw (1)",,  42.336377, -72.661303,,,0,
1997,1997,"Court / Grove",,  42.157148, -72.584224,,,0,
1998,1998,"Grove / Front",,  42.153803, -72.584612,,,0,
2,2,"Mountain Road (Out)",,  42.472548, -72.601402,,,0,
20,20,"Waterfield Farms (In)",,  42.426982, -72.540139,,,0,
200,200,"Meadowbrook Apartments / Straw (2)",,  42.336521, -72.661126,,,0,
2000,2000,"Sander's Stop (In)",,  42.326132, -72.530289,,,0,
2001,2001,"Sander's Stop (Out)",,  42.326106, -72.530400,,,0,
201,201,"Maple/Main (High St. Variant)",,  42.335989, -72.672015,,,0,
202,202,"Jackson/Jackson (Jackson Street School)",,  42.335810, -72.643578,,,0,
203,203,"Main / Maple",,  42.335626, -72.672160,,,0,
204,204,"Meadow / Main",,  42.335514, -72.672366,,,0,
207,207,"Chestnut / Main",,  42.335024, -72.667592,,,0,
208,208,"Maple/Main (Outbound)",,  42.334857, -72.672050,,,0,
2087,2087,"Atkins Farm Storefront",,  42.318944, -72.528737,,,0,
209,209,"Florence Center (Inbound)",,  42.334806, -72.668584,,,0,
21,21,"Mill Hollow Apts / Puffer's Pond",,  42.416183, -72.520385,,,0,
210,210,"Straw / Berkshire (1)",,  42.334663, -72.663772,,,0,
211,211,"Straw / Berkshire (2)",,  42.334982, -72.663599,,,0,
213,213,"Barrett / Jackson (1)",,  42.333998, -72.643106,,,0,
214,214,"Barrett/Hathaway Farms (Outbound)",,  42.333791, -72.639973,,,0,
215,215,"Barrett/Hathaway Farms (Inbound)",,  42.333750, -72.639829,,,0,
216,216,"Barrett / King (2)",,  42.333509, -72.636484,,,0,
218,218,"Barrett / King (1)",,  42.333449, -72.636168,,,0,
22,22,"Market Hill Road",,  42.415394, -72.507346,,,0,
220,220,"Maple / Pine",,  42.332209, -72.672109,,,0,
221,221,"Potwine Lane (In)",,  42.333158, -72.523470,,,0,
222,222,"Potwine Lane (Out)",,  42.332982, -72.523614,,,0,
223,223,"Locust / Prospect (1)",,  42.331666, -72.653183,,,0,
224,224,"Locust / Prospect (2)",,  42.331500, -72.653214,,,0,
225,225,"Pine / Corticelli",,  42.331159, -72.676452,,,0,
226,226,"Starlite Center",,  42.330128, -72.675127,,,0,
227,227,"Florence / Ryan",,  42.329994, -72.678757,,,0,
228,228,"Stop and Shop",,  42.329483, -72.636167,,,0,
229,229,"Sheldon Field (W)",,  42.328932, -72.624265,,,0,
23,23,"Summer Street",,  42.414117, -72.528305,,,0,
230,230,"Sheldon Field (E)",,  42.328947, -72.624119,,,0,
231,231,"Gulf Road (In)",,  42.329634, -72.448141,,,0,
232,232,"Gulf Road (Out)",,  42.329529, -72.448197,,,0,
233,233,"King/Church (KFC Taco Bell)",,  42.328810, -72.633541,,,0,
234,234,"Elm/Connecting Road (Childs Park)",,  42.326146, -72.649699,,,0,
235,235,"Elm/Connecting Road (Northampton High School)",,  42.325189, -72.649393,,,0,
236,236,"Hampshire College",,  42.326192, -72.532065,,,0,
237,237,"Florence Heights",,  42.323804, -72.676688,,,0,
238,238,"Northampton Post Office Bridge Street",,  42.321701, -72.627153,,,0,
239,239,"King/North (Cumberland Farms)",,  42.323482, -72.632531,,,0,
24,24,"Cushman Day School",,  42.413832, -72.506351,,,0,
240,240,"Diane Drive (In)",,  42.325524, -72.439054,,,0,
241,241,"Diane Drive (Out)",,  42.325364, -72.438466,,,0,
242,242,"King/Bright (Dunkin Donuts)",,  42.323519, -72.632420,,,0,
243,243,"Dakin House (Out)",,  42.322230, -72.529840,,,0,
244,244,"Northampton Post Office",,  42.321630, -72.627060,,,0,
245,245,"Dakin House (In)",,  42.322138, -72.529776,,,0,
246,246,"King/Allen (Hotel Northampton)",,  42.320598, -72.630907,,,0,
2470,2470,"Eric Carle Museum (In)",,  42.321692, -72.533516,,,0,
2471,2471,"Eric Carle Museum (Out)",,  42.321780, -72.533460,,,0,
248,248,"Holland Glen (In)",,  42.321908, -72.428101,,,0,
249,249,"King/Merrick (Calvin Theatre)",,  42.319994, -72.630170,,,0,
25,25,"Cushman Center",,  42.412995, -72.508318,,,0,
250,250,"Holland Glen (Out)",,  42.321760, -72.428180,,,0,
251,251,"Smith College",,  42.319621, -72.637550,,,0,
252,252,"Prospect Street",,  42.319731, -72.637472,,,0,
254,254,"Northampton Court House",,  42.319327, -72.630251,,,0,
255,255,"Atkins Farm / Bay Road (In)",,  42.319954, -72.529493,,,0,
256,256,"Thornes Market (R44 Only)",,  42.318440, -72.631088,,,0,
257,257,"Atkins Farm / Bay Road (Out)",,  42.319474, -72.528630,,,0,
259,259,"Live 155",,  42.317952, -72.627506,,,0,
26,26,"East Pleasant Street / Pine Street",,  42.412437, -72.513226,,,0,
260,260,"Masonic St / Academy of Music (W)",,  42.317848, -72.633231,,,0,place_AcaMus
261,261,"Academy of Music (E)",,  42.317700, -72.633053,,,0,place_AcaMus
262,262,"Pleasant St/ Hockanum Rd OB",,  42.315013, -72.625254,,,0,
263,263,"Fruit Street / Old South Street",,  42.315143, -72.631731,,,0,
264,264,"Cedarwood Apts (Out)",,  42.315972, -72.425905,,,0,
265,265,"Cedarwood Apts (In)",,  42.315930, -72.425832,,,0,
266,266,"Fruit / Smith",,  42.313755, -72.629559,,,0,
267,267,"Walter Salvo House",,  42.313357, -72.627658,,,0,
268,268,"Conz St/ Dialysis Center",,  42.313241, -72.626890,,,0,
269,269,"Glenns Glen (In)",,  42.311610, -72.423035,,,0,
270,270,"Glenns Glen (Out)",,  42.311552, -72.423077,,,0,
271,271,"Notch Visitors Center (In)",,  42.304824, -72.528293,,,0,
272,272,"Notch Visitors Center (Out)",,  42.304198, -72.528115,,,0,
273,273,"Bay Road / Federal Street (In)",,  42.298484, -72.415896,,,0,
274,274,"Bay Road / Federal Street (Out)",,  42.298469, -72.416044,,,0,
276,276,"Crown Pointe Apts",,  42.290670, -72.408343,,,0,
277,277,"Granby Heights Condominiums (Out)",,  42.289157, -72.535661,,,0,
278,278,"Quabbin Shops",,  42.290307, -72.408116,,,0,
2780,2780,"Woodhaven Drive (In)",,  42.283081, -72.405371,,,0,
2781,2781,"Woodhaven Drive (Out)",,  42.283024, -72.405529,,,0,
28,28,"State Street",,  42.410674, -72.524330,,,0,
280,280,"Granby Heights Condominiums (In)",,  42.289103, -72.535438,,,0,
283,283,"Oneil St (2)",,  42.284965, -72.656217,,,0,
284,284,"Oneil St (1)",,  42.284954, -72.656100,,,0,
286,286,"Lynn Drive (Out)",,  42.282486, -72.553576,,,0,
287,287,"Lynn Drive (In)",,  42.282355, -72.553612,,,0,
29,29,"Townehouse Apts (Out)",,  42.409592, -72.534615,,,0,
290,290,"Hadley Street (N)",,  42.263359, -72.582483,,,0,
291,291,"Belchertown Common",,  42.279646, -72.402381,,,0,
292,292,"Lovefield / Terrace",,  42.276122, -72.657538,,,0,
293,293,"Pleasant / Terrace",,  42.275909, -72.657847,,,0,
294,294,"Belchertown Center",,  42.277605, -72.400816,,,0,
296,296,"Pleasant / Ridgewood (1)",,  42.274169, -72.661839,,,0,
297,297,"Pleasant / Ridgewood (2)",,  42.274027, -72.661934,,,0,
30,30,"Townehouse Apts (In)",,  42.409630, -72.533466,,,0,
300,300,"Pleasant/Hill  (Eastworks)",,  42.272396, -72.667212,,,0,
302,302,"Easthampton Town Hall",,  42.271207, -72.672092,,,0,
306,306,"Dickinson Farm Road (Out)",,  42.269918, -72.566034,,,0,
307,307,"Dickinson Farm Road (In)",,  42.269784, -72.565930,,,0,
308,308,"Union / Liberty (1)",,  42.267015, -72.669983,,,0,
31,31,"North Amherst Center (Out)",,  42.409181, -72.530634,,,0,
313,313,"Union / Williston (1)",,  42.265867, -72.669342,,,0,
314,314,"Union / Williston (2)",,  42.265601, -72.668993,,,0,
317,317,"Cottage and Clark Inbound",,  42.264150, -72.664216,,,0,
318,318,"Cottage and Clark Outbound",,  42.263991, -72.663961,,,0,
32,32,"North Amherst Center (In)",,  42.409074, -72.530753,,,0,
320,320,"Silver Street (Out)",,  42.261572, -72.572801,,,0,
323,323,"S. Hadley Center",,  42.258019, -72.575906,,,0,
324,324,"Park Street",,  42.258003, -72.572996,,,0,
329,329,"Stone Shelter",,  42.257632, -72.575847,,,0,
33,33,"Grantwood Drive",,  42.406837, -72.514465,,,0,
333,333,"Mount Holyoke College Museum",,  42.256659, -72.572210,,,0,
336,336,"Mount Holyoke College / Blanchard Hall",,  42.254254, -72.574108,,,0,
338,338,"Mary Woolley Hall",,  42.254084, -72.576489,,,0,
34,34,"Puffton Village Apts 1",,  42.405876, -72.532485,,,0,
345,345,"Newton / Lyman",,  42.235730, -72.583338,,,0,
35,35,"Puffton Village Apts 2",,  42.404945, -72.530827,,,0,
350,350,"Lamb / Ramp",,  42.220683, -72.590868,,,0,
351,351,"Lamb / Lamb",,  42.220361, -72.590975,,,0,
353,353,"Lamb / School",,  42.217561, -72.591969,,,0,
354,354,"Lincoln / Taylor",,  42.216107, -72.619322,,,0,
355,355,"Bridge / Grant",,  42.216161, -72.593391,,,0,
356,356,"Pleasant / Lincoln",,  42.215899, -72.620276,,,0,
357,357,"Bridge / School",,  42.216112, -72.593314,,,0,
358,358,"Bridge / Main",,  42.215382, -72.594502,,,0,
359,359,"Stop and Shop Drive / Hampden",,  42.213975, -72.617820,,,0,
36,36,"Cherry Lane",,  42.404615, -72.514850,,,0,
360,360,"Hampden / Pleasant",,  42.213396, -72.620794,,,0,
361,361,"Hampden / Nonotuck",,  42.213276, -72.623290,,,0,
362,362,"Hampden / Arlington",,  42.213125, -72.627872,,,0,
363,363,"Pleasant / Hampden",,  42.213037, -72.620308,,,0,
364,364,"Northampton / Hampden",,  42.212774, -72.629671,,,0,
365,365,"New Ludlow / Loretta",,  42.212161, -72.572128,,,0,
367,367,"Dwight / Nonotuck",,  42.210925, -72.622922,,,0,
368,368,"Dwight / Saint Jerome",,  42.210833, -72.625427,,,0,
369,369,"Dwight / Lynwood",,  42.210736, -72.629265,,,0,
37,37,"Crestview Apts",,  42.403861, -72.529443,,,0,
370,370,"Lyman / Elm",,  42.210854, -72.608260,,,0,
371,371,"Walnut / Hampden",,  42.210688, -72.609456,,,0,
372,372,"Chestnut / Lyman",,  42.210490, -72.606988,,,0,
373,373,"Appleton / Poplar",,  42.210200, -72.619651,,,0,
374,374,"Maple / Saint Kolbe",,  42.210282, -72.605644,,,0,
376,376,"Pleasant / Forestdale",,  42.209526, -72.620498,,,0,
377,377,"Lyman / Maple",,  42.209608, -72.605818,,,0,
38,38,"North Village Apts",,  42.403206, -72.529163,,,0,
380,380,"Essex / Sycamore",,  42.208618, -72.619719,,,0,
381,381,"Appleton / Oak",,  42.208308, -72.616177,,,0,
383,383,"Britton / Hudson",,  42.208516, -72.573677,,,0,
386,386,"Sullivan School",,  42.207075, -72.646239,,,0,
387,387,"High / Dwight",,  42.206937, -72.607659,,,0,
388,388,"Lyman / Summer",,  42.207042, -72.595889,,,0,
39,39,"Sheerman Lane",,  42.402193, -72.515340,,,0,
390,390,"Appleton / Walnut",,  42.206825, -72.613476,,,0,
391,391,"Lyman / Center",,  42.206797, -72.598336,,,0,
393,393,"Maple / Suffolk",,  42.206533, -72.609393,,,0,
394,394,"Dwight / Front",,  42.206099, -72.605818,,,0,
398,398,"High / Suffolk",,  42.205758, -72.608883,,,0,
4,4,"Sugarloaf Street (Out)",,  42.468016, -72.595440,,,0,
40,40,"Tilson Farm Road (Out)",,  42.398355, -72.516072,,,0,
404,404,"Appleton / Maple",,  42.205396, -72.610811,,,0,
406,406,"Mosher / West",,  42.205403, -72.600260,,,0,
41,41,"Tilson Farm Road (In)",,  42.398417, -72.516236,,,0,
412,412,"High / Appleton",,  42.204741, -72.609836,,,0,
413,413,"Mosher / Bridge",,  42.204597, -72.596383,,,0,
414,414,"Holyoke Public Library",,  42.204357, -72.611549,,,0,
415,415,"Hampshire / Beech",,  42.204281, -72.617969,,,0,
416,416,"Beech / Hampshire",,  42.204201, -72.618480,,,0,
417,417,"Main / Dwight",,  42.204559, -72.602986,,,0,
4173,4173,"State/Bedford Terrace (In)",,  42.320377, -72.634480,,,0,
418,418,"Stonybrook Visitor Entrance",,  42.204926, -72.509850,,,0,
419,419,"High / Essex",,  42.203870, -72.610678,,,0,
42,42,"Fairfield Street",,  42.398199, -72.528122,,,0,
422,422,"Hampshire / Pine",,  42.203937, -72.617269,,,0,
423,423,"Beech / Sargeant",,  42.203521, -72.619292,,,0,
424,424,"Hampshire / Walnut",,  42.203503, -72.616692,,,0,
425,425,"Cherry / Dale",,  42.203029, -72.645526,,,0,
426,426,"Northampton / Pinehurst",,  42.203127, -72.631010,,,0,
427,427,"Cherry / Maple Crest (1)",,  42.202933, -72.645241,,,0,
428,428,"Sargeant / Beech",,  42.203152, -72.619029,,,0,
43,43,"College of Education",,  42.397630, -72.527947,,,0,
430,430,"High / Cabot",,  42.202889, -72.611652,,,0,
431,431,"Cabot / High",,  42.202802, -72.612311,,,0,
432,432,"Memorial / Prospect",,  42.203102, -72.571634,,,0,
433,433,"Hampshire / Chestnut (1)",,  42.202651, -72.614944,,,0,
434,434,"Hampshire / Chestnut (2)",,  42.202520, -72.614874,,,0,
435,435,"Sargeant / Walnut (1)",,  42.202397, -72.617787,,,0,
436,436,"Beech / Franklin (1)",,  42.202152, -72.621251,,,0,
437,437,"Sargeant / Walnut (2)",,  42.202280, -72.617446,,,0,
4371,4371,"Holyoke Train Station (Amtrak)",,  42.204353, -72.602735,,,0,
438,438,"Main / Appleton (2)",,  42.202413, -72.604660,,,0,
439,439,"Maple / Hampshire",,  42.201926, -72.614009,,,0,
44,44,"Sylvan Residential (In)",,  42.397258, -72.521694,,,0,
440,440,"Beech / Franklin (2)",,  42.202199, -72.620891,,,0,
441,441,"Northampton / Forer (1)",,  42.201965, -72.631089,,,0,
443,443,"Cherry / Leary",,  42.201654, -72.643454,,,0,
444,444,"Cabot / Bond",,  42.201929, -72.610520,,,0,
445,445,"Main / Appleton (1)",,  42.202070, -72.604823,,,0,
446,446,"Cabot / Bond",,  42.201890, -72.610731,,,0,
447,447,"Hampshire / High",,  42.201668, -72.613321,,,0,
448,448,"Beech / Linden",,  42.201423, -72.622997,,,0,
449,449,"Sargeant / Chestnut (2)",,  42.201494, -72.616020,,,0,
45,45,"Sylvan Residential (Out)",,  42.397109, -72.521463,,,0,
450,450,"Sargeant / Chestnut (1)",,  42.201390, -72.616037,,,0,
451,451,"Cherry / Homestead (2)",,  42.201119, -72.641658,,,0,
452,452,"High / Hampshire",,  42.201358, -72.613169,,,0,
453,453,"Maple / Sargeant (1)",,  42.201097, -72.614789,,,0,
454,454,"Stonybrook Prerelease",,  42.201660, -72.508978,,,0,
455,455,"High / Sargeant",,  42.200552, -72.613942,,,0,
456,456,"Hospital / Parking Lot",,  42.200372, -72.628677,,,0,
457,457,"Cabot / Cabot",,  42.200520, -72.608043,,,0,
459,459,"Maple / Sargeant",,  42.200364, -72.615504,,,0,
46,46,"Totman Gym (In)",,  42.395758, -72.525471,,,0,
460,460,"Main / Cabot",,  42.200408, -72.606710,,,0,
461,461,"Beech / Beech",,  42.200163, -72.625873,,,0,
462,462,"Cabot / Main",,  42.200045, -72.607193,,,0,
463,463,"Cabot / Clemente",,  42.199689, -72.606449,,,0,
464,464,"Beech / Hospital",,  42.199443, -72.628096,,,0,
465,465,"Cabot / Clemente",,  42.199153, -72.605864,,,0,
466,466,"Maple / Jackson",,  42.198773, -72.617091,,,0,
467,467,"Beech / Hospital",,  42.199259, -72.628705,,,0,
468,468,"Beech / Northampton",,  42.199162, -72.630560,,,0,
47,47,"Totman Gym (Out)",,  42.395686, -72.525282,,,0,
470,470,"Soldiers Home / Fairmont",,  42.199003, -72.640353,,,0,
471,471,"Cherry / Bay State (1)",,  42.199030, -72.632017,,,0,
472,472,"Cherry / Hillside",,  42.198988, -72.633657,,,0,
473,473,"High / Franklin",,  42.199131, -72.615322,,,0,
474,474,"Cherry / Bay State (2)",,  42.198832, -72.633103,,,0,
475,475,"Main / Hamilton (1)",,  42.199008, -72.607977,,,0,
476,476,"Hillside / Merkel",,  42.198155, -72.634257,,,0,
477,477,"Cabot / Bridge",,  42.198346, -72.604756,,,0,
478,478,"Cabot / Bridge",,  42.198558, -72.605144,,,0,
479,479,"High / Jackson",,  42.198118, -72.616316,,,0,
48,48,"Olympia Drive",,  42.395552, -72.511223,,,0,
481,481,"Main / Sargeant",,  42.198196, -72.608758,,,0,
482,482,"Memorial / Parking Lot",,  42.197760, -72.573676,,,0,
483,483,"Cabot / Canal",,  42.197391, -72.603784,,,0,
484,484,"Cabot / Canal",,  42.197368, -72.603604,,,0,
485,485,"South and Maple",,  42.196735, -72.619060,,,0,
486,486,"Memorial / Connecting Road",,  42.197146, -72.574275,,,0,
488,488,"South / South",,  42.195686, -72.620854,,,0,
489,489,"Hillside / Westfield",,  42.195314, -72.634063,,,0,
49,49,"Computer Science / Green Lot 26",,  42.395520, -72.532587,,,0,
490,490,"South / South Street Plaza Drive",,  42.195542, -72.621680,,,0,
491,491,"Holyoke Community College - Frost Circle",,  42.195154, -72.652782,,,0,
492,492,"Hillside / Westfield",,  42.195363, -72.634178,,,0,
493,493,"Main / Jackson (1)",,  42.195382, -72.611657,,,0,
494,494,"South / Harrison (1)",,  42.194828, -72.625925,,,0,
495,495,"South / Harrison (2)",,  42.194790, -72.626861,,,0,
497,497,"South / Chapin",,  42.194736, -72.624198,,,0,
498,498,"Westfield / Hitchcock",,  42.194397, -72.635645,,,0,
499,499,"Homestead / Lorraine",,  42.194277, -72.647186,,,0,
50,50,"Computer Science",,  42.395406, -72.532454,,,0,
500,500,"Northampton / Myrtle",,  42.193861, -72.629926,,,0,
5000,5000,"Converse / Highland (Flag Stop)",,  42.064998, -72.576244,,,0,
5001,5001,"Converse / Laurel (Flag Stop)",,  42.064941, -72.573543,,,0,
5002,5002,"Converse / Burbank (1)",,  42.065676, -72.566844,,,0,
5003,5003,"Converse / Burbank (2)",,  42.065541, -72.566818,,,0,
5004,5004,"Converse / Williamsburg (Flag Stop)",,  42.065355, -72.553253,,,0,
501,501,"Chicopee / Emerson",,  42.193670, -72.600114,,,0,
502,502,"Westfield / Woodland",,  42.193016, -72.636897,,,0,
503,503,"Westfield / Woodland",,  42.193117, -72.636703,,,0,
504,504,"Us Hwy 5 / Northampton (2)",,  42.192745, -72.629671,,,0,
5040,5040,"College / Morgan (Flag Stop)",,  42.252864, -72.577798,,,0,
5041,5041,"Newton / Burnett (Flag Stop)",,  42.250872, -72.579036,,,0,
5042,5042,"Newton / Brainerd (Flag Stop)",,  42.245050, -72.580487,,,0,
5043,5043,"Newton / McKinley (Flag Stop)",,  42.232369, -72.585075,,,0,
5044,5044,"South Hadley High School (Flag Stop)",,  42.228731, -72.587037,,,0,
505,505,"Homestead / Sheehan",,  42.192125, -72.648343,,,0,
5053,5053,"Westfield / Apremont (Flag Stop)",,  42.182871, -72.666031,,,0,
5054,5054,"Westfield / Fini (Flag Stop)",,  42.178660, -72.685646,,,0,
5055,5055,"Westfield / Old Stage (Flag Stop)",,  42.179347, -72.706318,,,0,
5057,5057,"Southampton / Summit Lock (Flag Stop)",,  42.175201, -72.727225,,,0,
5058,5058,"Southampton / Falcon (Flag Stop)",,  42.169322, -72.726768,,,0,
5059,5059,"Southampton / Airport (Flag Stop)",,  42.162251, -72.726340,,,0,
506,506,"Memorial / Jamrog (2)",,  42.192780, -72.576224,,,0,
5060,5060,"Southampton / Hickney (Flag Stop)",,  42.149218, -72.728058,,,0,
5061,5061,"Mass Pike / Friendly's Way (Flag Stop)",,  42.143352, -72.732078,,,0,
5062,5062,"N Elm / Notre Dame (Flag Stop)",,  42.135847, -72.739336,,,0,
5063,5063,"N Elm / Pochassic (Flag Stop)",,  42.130533, -72.745203,,,0,
507,507,"Memorial / Jamrog (1)",,  42.192703, -72.575923,,,0,
5073,5073,"Florence / Scanlon  (Flag Stop)",,  42.326635, -72.677515,,,0,
508,508,"Main / Berkshire",,  42.192160, -72.614932,,,0,
509,509,"The Kids Place at HCC",,  42.191180, -72.652461,,,0,
5091,5091,"Union / Pochassic (Flag Stop)",,  42.130116, -72.744365,,,0,
51,51,"Yellow Lot 13",,  42.395245, -72.513308,,,0,
510,510,"Chicopee / Baptist",,  42.191568, -72.601099,,,0,
5101,5101,"Union Station Bay 1",,  42.106133, -72.594423,,,0,place_UnSta
5102,5102,"Union Station Bay 2",,  42.106018, -72.594557,,,0,place_UnSta
5103,5103,"Union Station Bay 3",,  42.105898, -72.594708,,,0,place_UnSta
5104,5104,"Union Station Bay 4",,  42.105865, -72.594885,,,0,place_UnSta
5105,5105,"Union Station Bay 5",,  42.106002, -72.594713,,,0,place_UnSta
5106,5106,"Union Station Bay 6",,  42.106104, -72.594585,,,0,place_UnSta
5107,5107,"Union Station Bay 7",,  42.106173, -72.594502,,,0,place_UnSta
5108,5108,"Union Station Bay 8",,  42.106205, -72.594805,,,0,place_UnSta
5109,5109,"Union Station Bay 9",,  42.105933, -72.595124,,,0,place_UnSta
511,511,"Westfield / Bray Park",,  42.190878, -72.640847,,,0,
5110,5110,"Union Station Bay 10",,  42.105814, -72.595281,,,0,place_UnSta
5111,5111,"Union Station Bay 11",,  42.105669, -72.595465,,,0,place_UnSta
5112,5112,"Union Station Bay 12",,  42.106580, -72.594603,,,0,place_UnSta
5113,5113,"Union Station Bay 13",,  42.106712, -72.594790,,,0,place_UnSta
5114,5114,"Union Station Bay 14",,  42.106831, -72.594959,,,0,place_UnSta
5115,5115,"Union Station Bay 15",,  42.106634, -72.595025,,,0,place_UnSta
5116,5116,"Union Station Bay 16",,  42.106554, -72.594865,,,0,place_UnSta
5117,5117,"Union Station Bay 17",,  42.106401, -72.594680,,,0,place_UnSta
512,512,"Westfield / Bray Park",,  42.190949, -72.639988,,,0,
513,513,"Northampton / Elmwood (1)",,  42.191017, -72.629653,,,0,
514,514,"Main / Race (1)",,  42.190359, -72.617522,,,0,
516,516,"Main / Race (2)",,  42.190146, -72.618562,,,0,
517,517,"Westfield / Connecticut",,  42.189848, -72.642989,,,0,
518,518,"Chicopee / Charbonneau",,  42.190153, -72.602729,,,0,
519,519,"Westfield / Connecticut",,  42.189615, -72.643292,,,0,
52,52,"Mather Drive",,  42.394870, -72.511079,,,0,
520,520,"Homestead / Memorial (1)",,  42.189218, -72.649791,,,0,
521,521,"Main / Vernon",,  42.189346, -72.621852,,,0,
522,522,"Westfield / Memorial",,  42.188651, -72.645894,,,0,
523,523,"Memorial / Pondview",,  42.189301, -72.577579,,,0,
524,524,"Chicopee / Blanche",,  42.188399, -72.605386,,,0,
525,525,"Westfield / Mcgrady",,  42.187786, -72.647630,,,0,
526,526,"Westfield / Johns",,  42.187578, -72.648904,,,0,
527,527,"Main / Prew (1)",,  42.187691, -72.624240,,,0,
528,528,"Us Hwy 5 / Northampton (1)",,  42.187153, -72.630038,,,0,
529,529,"Kmart Parking Lot",,  42.187081, -72.632156,,,0,
53,53,"Village Park Apts (S)",,  42.394605, -72.515807,,,0,
530,530,"Chicopee / State Hwy 116",,  42.187062, -72.607633,,,0,
531,531,"Memorial / Pendleton (2)",,  42.187046, -72.577657,,,0,
533,533,"Homestead / Ramp",,  42.186301, -72.650575,,,0,
534,534,"Memorial / Pendleton (1)",,  42.186772, -72.577338,,,0,
535,535,"Homestead / Pynchon",,  42.185245, -72.650066,,,0,
537,537,"Memorial / Lynn",,  42.185652, -72.577628,,,0,
538,538,"Meadow / Chicopee",,  42.184788, -72.609813,,,0,
539,539,"Chicopee / Hope",,  42.184656, -72.611143,,,0,
54,54,"Village Park Apts (N)",,  42.395025, -72.515551,,,0,
541,541,"Whiting Farms / Gordon (1)",,  42.183816, -72.636896,,,0,
542,542,"Homestead / Kane",,  42.183550, -72.648808,,,0,
544,544,"Whiting Farms / Gordon (2)",,  42.183448, -72.637004,,,0,
545,545,"Meadow / Alden",,  42.183737, -72.610520,,,0,
546,546,"Kmart Plaza Drive South / Northampton",,  42.183452, -72.632912,,,0,
549,549,"Grattan / Philathea (2)",,  42.182765, -72.609933,,,0,
55,55,"Williamsburg Center/ Grange Hall",,  42.392008, -72.729710,,,0,
550,550,"Grattan / Philathea (1)",,  42.182712, -72.610258,,,0,
551,551,"Whiting Farms / Autumn",,  42.181670, -72.638543,,,0,
552,552,"Chicopee / Warregan (1)",,  42.181423, -72.615452,,,0,
553,553,"Chicopee / Warregan (2)",,  42.181286, -72.615777,,,0,
554,554,"Homestead / Charles Hill",,  42.180633, -72.648747,,,0,
555,555,"Homestead / Upland",,  42.180413, -72.648636,,,0,
556,556,"Whiting Farms / Farnum",,  42.180241, -72.639659,,,0,
557,557,"Whiting Farms / Jeanne",,  42.180013, -72.639670,,,0,
558,558,"Chicopee / Ducharme",,  42.179831, -72.617621,,,0,
559,559,"Meadow / Charpentier",,  42.179708, -72.612912,,,0,
56,56,"Arnold House",,  42.393835, -72.526105,,,0,
560,560,"Chicopee / Narragansett",,  42.180026, -72.617494,,,0,
561,561,"North / Hampton Ponds (1)",,  42.178444, -72.690614,,,0,
562,562,"North / Hampton Ponds (2)",,  42.178313, -72.690872,,,0,
563,563,"Meadow / Thomas (2)",,  42.178984, -72.613384,,,0,
564,564,"Tokeneke / Holy Family",,  42.178463, -72.636719,,,0,
565,565,"Tokeneke / Whiting Farms",,  42.178430, -72.639872,,,0,
566,566,"Holy Family / Unnamed Street",,  42.178136, -72.636402,,,0,
567,567,"Main / Dean Tech Drive (1)",,  42.178187, -72.629715,,,0,
568,568,"Meadow / Ducharme",,  42.178260, -72.613876,,,0,
569,569,"Chicopee / Lawndale",,  42.177946, -72.620165,,,0,
572,572,"Chicopee / Bonner",,  42.177083, -72.621054,,,0,
573,573,"Main / Saint Vincent (1)",,  42.176507, -72.630246,,,0,
574,574,"Grattan / Dallaire",,  42.176397, -72.600711,,,0,
575,575,"Meadow / Dorrance",,  42.175941, -72.614530,,,0,
576,576,"Meadow / Lawndale",,  42.175740, -72.614686,,,0,
577,577,"Grattan / Mary",,  42.175799, -72.600488,,,0,
578,578,"Chicopee / Cora",,  42.175499, -72.621642,,,0,
58,58,"Physical Sciences Building",,  42.393648, -72.526160,,,0,
580,580,"Holy Family / Devonshire (1)",,  42.174759, -72.636630,,,0,
5800,5800,"Mont Marie",,  42.170643, -72.635095,,,0,
581,581,"Holy Family / Devonshire (2)",,  42.174620, -72.636556,,,0,
582,582,"Chicopee / Daley",,  42.174709, -72.622085,,,0,
583,583,"Lower Westfield / Whiting Farms",,  42.172689, -72.640447,,,0,
584,584,"Lower Westfield / Homestead",,  42.174004, -72.647829,,,0,
585,585,"Big Y - Chicopee (Memorial Drive)",,  42.174269, -72.578591,,,0,
586,586,"Grattan / Providence (1)",,  42.174196, -72.599504,,,0,
587,587,"Grattan / Providence (2)",,  42.174157, -72.599376,,,0,
588,588,"Chicopee Marketplace",,  42.174410, -72.575337,,,0,
59,59,"Orchard Hill Residential / Grayson",,  42.392700, -72.519277,,,0,
590,590,"Main / Peltiah (1)",,  42.173622, -72.631264,,,0,
593,593,"Chicopee / Dillon",,  42.174564, -72.622065,,,0,
594,594,"Main / Jones Ferry",,  42.171893, -72.631740,,,0,
5941,5941,"Main / Jones Ferry (across)",,  42.172148, -72.631834,,,0,
595,595,"Montgomery / Unknown (1)",,  42.172250, -72.586486,,,0,
596,596,"Meadow / Mckinstry",,  42.172250, -72.614630,,,0,
597,597,"Montgomery / Unknown (2)",,  42.171994, -72.586569,,,0,
598,598,"Chicopee / Jones Ferry (3)",,  42.171662, -72.623327,,,0,
6,6,"Garage Road (Out)",,  42.465388, -72.575866,,,0,
60,60,"Green Lot 25",,  42.392537, -72.534241,,,0,
600,600,"Memorial/Ramp 90",,  42.170698, -72.577229,,,0,
6001,6001,"Liberty / Carolyn Price Way",,  42.135660, -72.584306,,,0,
6002,6002,"Liberty / Tacoma",,  42.129400, -72.584605,,,0,
6003,6003,"Liberty / Columbia",,  42.114189, -72.585927,,,0,
6004,6004,"Liberty / Webster",,  42.113214, -72.586990,,,0,
6005,6005,"Liberty / Cass",,  42.111720, -72.588902,,,0,
6006,6006,"Liberty / Franklin (2)",,  42.110232, -72.590770,,,0,
6007,6007,"Franklin / Saab",,  42.111317, -72.592130,,,0,
6008,6008,"East Longmeadow Industrial Park (Flag Stop)",,  42.048051, -72.522613,,,0,
6009,6009,"Dwight / Bruce Landon Way",,  42.102985, -72.587388,,,0,
6010,6010,"State / Walnut",,  42.108361, -72.576043,,,0,
6011,6011,"Hancock / Union",,  42.107751, -72.568585,,,0,
6012,6012,"King / Nelson",,  42.104956, -72.566281,,,0,
6013,6013,"King / Eastern (1)",,  42.105399, -72.562628,,,0,
6014,6014,"Walnut / Ivy",,  42.102619, -72.569111,,,0,
6016,6016,"Chestnut / Edwards",,  42.103679, -72.586848,,,0,
6017,6017,"Liberty / Franklin (1)",,  42.110406, -72.590423,,,0,
6018,6018,"Liberty / Cass (opposite)",,  42.111512, -72.589030,,,0,
6019,6019,"Liberty / Webster (opposite)",,  42.112872, -72.587337,,,0,
6020,6020,"Liberty / Columbia (opposite)",,  42.114411, -72.585662,,,0,
6021,6021,"Liberty / Genesee (1)",,  42.116041, -72.584930,,,0,
6023,6023,"Liberty / Greaney",,  42.133663, -72.584673,,,0,
6024,6024,"Liberty St. opposite WGGB",,  42.138510, -72.582695,,,0,
6026,6026,"State / Pleasant",,  42.109961, -72.571289,,,0,
6027,6027,"Clyde / M (2)",,  42.114760, -72.616623,,,0,
6028,6028,"Clyde / Plainfield (1)",,  42.114798, -72.614691,,,0,
6029,6029,"MassMutual Center",,  42.101624, -72.588208,,,0,
603,603,"Chicopee / Jones Ferry (2)",,  42.170739, -72.623835,,,0,
6031,6031,"Cooley/Caitlin",,  42.087223, -72.502444,,,0,
6032,6032,"Front / Grape (1)",,  42.148086, -72.602978,,,0,
604,604,"Memorial/(Park Inn 628)",,  42.171128, -72.577400,,,0,
6040,6040,"Walnut/Hickory",,  42.098305, -72.564160,,,0,
6041,6041,"Main / Pleasant",,  42.214571, -72.593275,,,0,
6042,6042,"Main / Parkview Place",,  42.214714, -72.594182,,,0,
6043,6043,"Liberty/C.P.Way (across)",,  42.135706, -72.584155,,,0,
605,605,"Meadow / Chicomansett",,  42.170994, -72.614468,,,0,
606,606,"Grattan / Trilby",,  42.170667, -72.596806,,,0,
608,608,"Grattan / Hobson",,  42.169420, -72.594865,,,0,
609,609,"Holyoke Mall JCPenney Entrance",,  42.169253, -72.640583,,,0,
61,61,"Yellow Lot 12",,  42.392369, -72.536127,,,0,
610,610,"Chicopee / Elmer",,  42.168649, -72.623671,,,0,
611,611,"Chicopee / Marshall",,  42.168033, -72.623676,,,0,
612,612,"State Hwy 141 / Grattan",,  42.167543, -72.592594,,,0,
613,613,"Meeting House / Meadow (1)",,  42.167965, -72.615063,,,0,
6139,6139,"Crafts / Main",,  42.317784, -72.631811,,,0,
614,614,"Meeting House / Meadow (2)",,  42.167927, -72.614776,,,0,
615,615,"Meeting House / Elcon (1)",,  42.167855, -72.616167,,,0,
616,616,"Big Y - Ludlow",,  42.169060, -72.481837,,,0,
617,617,"Meeting House / Elcon (2)",,  42.167741, -72.616648,,,0,
618,618,"Meeting House / Grocki (1)",,  42.167689, -72.617968,,,0,
6187,6187,"University / Amity",,  42.374942, -72.532597,,,0,
6188,6188,"University / Amity (1)",,  42.375002, -72.532696,,,0,
619,619,"Meeting House / Grocki (2)",,  42.167617, -72.617980,,,0,
62,62,"Orchard Hill Residential / Dickinson Hall",,  42.391826, -72.520007,,,0,
620,620,"Meeting House / Elmer (1)",,  42.167407, -72.620854,,,0,
621,621,"Meeting House / Elmer (2)",,  42.167251, -72.621757,,,0,
623,623,"Memorial / Fuller",,  42.167668, -72.578305,,,0,
6243,6243,"70 Mill Street",,  42.090946, -72.576532,,,0,
6247,6247,"90 Mill Street",,  42.091229, -72.575904,,,0,
626,626,"Providence Hospital / Parking Lot",,  42.165913, -72.633589,,,0,
6260,6260,"Old South / Conz",,  42.315742, -72.631698,,,0,
6262,6262,"Atwood Drive (Southbound)",,  42.302886, -72.622026,,,0,
6266,6266,"Union / School",,  42.269515, -72.671822,,,0,
6270,6270,"Easthampton Senior Center",,  42.269612, -72.671792,,,0,
628,628,"Columba / Grattan",,  42.165898, -72.590874,,,0,
6281,6281,"Springfield / Mountain (2)",,  42.107654, -72.703851,,,0,
6282,6282,"Cottage / Robbins (1)",,  42.143169, -72.547594,,,0,
6284,6284,"Carew / Newbury",,  42.127681, -72.581750,,,0,
6285,6285,"Belmont / Belvidere",,  42.084062, -72.546700,,,0,
6288,6288,"Belmont / Ramp (1)",,  42.086352, -72.558806,,,0,
6289,6289,"Main / Bridge",,  42.103339, -72.592269,,,0,
629,629,"Memorial/Cecile",,  42.165847, -72.579439,,,0,
6290,6290,"Holyoke Community College - College Road",,  42.195230, -72.652972,,,0,
63,63,"Morrill Science Center",,  42.391480, -72.525239,,,0,
630,630,"Montgomery / Willette",,  42.165387, -72.583976,,,0,
6302,6302,"Page / Robbins",,  42.147832, -72.542600,,,0,
6303,6303,"Page / Oakdale",,  42.148277, -72.541506,,,0,
6304,6304,"Page / 1st",,  42.150201, -72.537061,,,0,
6305,6305,"Brookdale / Bradford Hall",,  42.146350, -72.527250,,,0,
6306,6306,"Brookdale / Cottage",,  42.142606, -72.525651,,,0,
6307,6307,"Cottage / Carando",,  42.143866, -72.536590,,,0,
6308,6308,"Cottage / Industry",,  42.144176, -72.542199,,,0,
631,631,"Chicopee / Oldfield (1)",,  42.165009, -72.621264,,,0,
632,632,"Grattan / Columba",,  42.165289, -72.590122,,,0,
6324,6324,"Main / Holland",,  42.124341, -72.610074,,,0,
6330,6330,"Cottage / Brookdale",,  42.141755, -72.526074,,,0,
634,634,"Chicopee / Oldfield (2)",,  42.164835, -72.620904,,,0,
635,635,"Grattan / Naomi (2)",,  42.164106, -72.588898,,,0,
6350,6350,"Front / Orchard",,  42.148049, -72.598872,,,0,
6351,6351,"Front / Cyman",,  42.148010, -72.595079,,,0,
6352,6352,"Front / Academy",,  42.147990, -72.592000,,,0,
6353,6353,"Front / Grove",,  42.152486, -72.584406,,,0,
6354,6354,"Walmart Chicopee",,  42.172979, -72.574826,,,0,
636,636,"Grattan / Naomi (1)",,  42.163963, -72.588911,,,0,
637,637,"Whitney / Whitney",,  42.163645, -72.640085,,,0,
6371,6371,"Allen / Wachusett",,  42.094125, -72.515796,,,0,
6373,6373,"Sumner / Washington",,  42.083858, -72.570224,,,0,
6374,6374,"Fort Pleasant / Warner (1)",,  42.084992, -72.574221,,,0,
6375,6375,"Main / Osgood",,  42.112721, -72.604614,,,0,
6376,6376,"Main / Bancroft",,  42.113762, -72.605463,,,0,
6377,6377,"Bay / Blunt Park (3)",,  42.128826, -72.556923,,,0,
6379,6379,"Berkshire / Champlain",,  42.145151, -72.521387,,,0,
638,638,"Whitney / Mall Dr",,  42.163554, -72.639957,,,0,
6380,6380,"Oak / Caton (2)",,  42.159048, -72.503143,,,0,
639,639,"Chicopee / Lorraine (1)",,  42.163209, -72.618849,,,0,
64,64,"Integrative Learning Center",,  42.390988, -72.525305,,,0,
640,640,"Riverdale / Brightside",,  42.162148, -72.633185,,,0,
6400,6400,"Boston / Lucerne (2)",,  42.140599, -72.499843,,,0,
6401,6401,"Armory / Hannon",,  42.114328, -72.580438,,,0,
6402,6402,"Armory / Napier",,  42.116768, -72.582441,,,0,
6403,6403,"Armory / Ledyard",,  42.116764, -72.582607,,,0,
6404,6404,"Armory / Worthington",,  42.113891, -72.580160,,,0,
6406,6406,"Lincoln / Federal",,  42.110470, -72.578372,,,0,
6407,6407,"Lincoln / Federal",,  42.110435, -72.578159,,,0,
641,641,"Chicopee / Poplar (1)",,  42.162094, -72.617008,,,0,
6410,6410,"State / Mason",,  42.112135, -72.562490,,,0,
6411,6411,"Dwight / Taylor",,  42.105920, -72.591827,,,0,
6413,6413,"Court / Day",,  42.120157, -72.754587,,,0,
6414,6414,"Main / Cross",,  42.119099, -72.741593,,,0,
6415,6415,"Cherry / Maple Crest (2)",,  42.201669, -72.643694,,,0,
6416,6416,"Homestead / Memorial (2)",,  42.189440, -72.649738,,,0,
6417,6417,"Maple / Stockbridge",,  42.101848, -72.584009,,,0,
642,642,"Chicopee / Poplar (2)",,  42.162149, -72.616900,,,0,
6420,6420,"White / Pasadena",,  42.092854, -72.556315,,,0,
6421,6421,"Memorial / Union",,  42.096193, -72.607202,,,0,
6427,6427,"Island Pond / Casco",,  42.101451, -72.549052,,,0,
6428,6428,"Island Pond / Amanda",,  42.101724, -72.548307,,,0,
6429,6429,"Island Pond / Surry",,  42.097733, -72.550540,,,0,
6430,6430,"Island Pond / Agnes",,  42.097532, -72.550750,,,0,
6431,6431,"Berlin / State (1)",,  42.115615, -72.551102,,,0,
6432,6432,"Berlin / State (2)",,  42.115184, -72.551132,,,0,
6433,6433,"Roosevelt / Blunt Park",,  42.123133, -72.549334,,,0,
6434,6434,"Roosevelt / Cottage",,  42.138899, -72.547811,,,0,
6435,6435,"Roosevelt / Peer",,  42.129654, -72.545850,,,0,
6436,6436,"Roosevelt / Bay",,  42.132193, -72.546180,,,0,
6437,6437,"Roosevelt / Bay (2)",,  42.132211, -72.545937,,,0,
6438,6438,"Roosevelt / Wilbraham",,  42.113560, -72.548241,,,0,
6439,6439,"Roosevelt / Byron",,  42.113443, -72.548369,,,0,
644,644,"Grattan / Morris",,  42.161941, -72.586151,,,0,
6441,6441,"Chicopee / Lorraine (2)",,  42.163377, -72.618943,,,0,
6442,6442,"Chicopee / Walter",,  42.184787, -72.610850,,,0,
6444,6444,"Chicopee / Baptist",,  42.191538, -72.601394,,,0,
6445,6445,"Chicopee / Bolduc",,  42.190296, -72.602782,,,0,
6446,6446,"Chicopee / Adams",,  42.189041, -72.604478,,,0,
6447,6447,"Chicopee / Perrault",,  42.187233, -72.607619,,,0,
645,645,"Montgomery / Ramp",,  42.161709, -72.581906,,,0,
6450,6450,"Chicopee / Jones Ferry (1)",,  42.171829, -72.623352,,,0,
6452,6452,"Meadow / Caroline",,  42.182301, -72.611152,,,0,
6453,6453,"Meadow / Elizabeth",,  42.181736, -72.611578,,,0,
6454,6454,"Meadow / Thomas (1)",,  42.178925, -72.613538,,,0,
6457,6457,"Northampton / Elmwood (2)",,  42.190899, -72.629524,,,0,
6458,6458,"Riverdale / Labelle (1)",,  42.151551, -72.630682,,,0,
646,646,"Chicopee / Ramp (2)",,  42.160867, -72.614554,,,0,
6463,6463,"Roosevelt / Carnavon",,  42.107681, -72.546602,,,0,
6464,6464,"Pine / Maple Court",,  42.097607, -72.573470,,,0,
6465,6465,"Pine / Maple Street",,  42.095792, -72.574140,,,0,
6466,6466,"Pine / Windsor Street",,  42.096733, -72.573627,,,0,
6467,6467,"Pine / Pine Court",,  42.098116, -72.573088,,,0,
647,647,"Chicopee / Ramp (1)",,  42.160855, -72.614732,,,0,
6470,6470,"University Park Apartments/ Jarvis",,  42.217985, -72.641304,,,0,
6471,6471,"University Park Apartments / Jarvis (IN)",,  42.218202, -72.641306,,,0,
6473,6473,"Pine/Windsor (across)",,  42.096898, -72.573705,,,0,
6474,6474,"Island Pond/Roosevelt",,  42.104009, -72.546157,,,0,
6475,6475,"Roosevelt/Strathmore",,  42.107835, -72.546764,,,0,
6476,6476,"Roosevelt / Sylvester",,  42.129403, -72.545584,,,0,
6477,6477,"Roosevelt / Edgemont",,  42.124606, -72.547014,,,0,
648,648,"Montgomery / Memorial",,  42.161142, -72.581796,,,0,
65,65,"Chadbourne Hall (N)",,  42.389371, -72.518861,,,0,
650,650,"Grattan / Montgomery (2)",,  42.160997, -72.582918,,,0,
6500,6500,"Appleton / Pleasant",,  42.210709, -72.620587,,,0,
6501,6501,"Pleasant / Dwight",,  42.211312, -72.620407,,,0,
6504,6504,"Chicopee High School",,  42.149318, -72.586313,,,0,
651,651,"Grattan / Montgomery (1)",,  42.160864, -72.582730,,,0,
653,653,"Highland / Prospect",,  42.159399, -72.634367,,,0,
654,654,"Highland / Prospect",,  42.159307, -72.634517,,,0,
6550,6550,"Main / Hamilton (2)",,  42.198709, -72.608442,,,0,
6551,6551,"Main / Adams (2)",,  42.196739, -72.610434,,,0,
6552,6552,"Main / Jackson (2)",,  42.195884, -72.611276,,,0,
6553,6553,"Main / Papineau",,  42.188535, -72.623529,,,0,
6554,6554,"Main / Prew (2)",,  42.187891, -72.624193,,,0,
6555,6555,"Main / Dean Tech Drive (2)",,  42.177796, -72.630009,,,0,
6556,6556,"Main / Saint Vincent (2)",,  42.176590, -72.630359,,,0,
6557,6557,"Main / Peltiah (2)",,  42.174150, -72.631179,,,0,
656,656,"Riverdale / Marion",,  42.158625, -72.633206,,,0,
659,659,"Main / Oak",,  42.159677, -72.502599,,,0,
66,66,"Chadbourne Hall (S)",,  42.389351, -72.518940,,,0,
661,661,"Main / Pinevale (1)",,  42.159511, -72.500898,,,0,
662,662,"Main / Pinevale (2)",,  42.159416, -72.500946,,,0,
663,663,"Main / Grove",,  42.158557, -72.584712,,,0,
6633,6633,"Court Street (Chicopee Falls)",,  42.156999, -72.583979,,,0,
664,664,"Main / Canterbury",,  42.158559, -72.580592,,,0,
665,665,"Main / Cedar (1)",,  42.159320, -72.498757,,,0,
666,666,"46 Main Street",,  42.158473, -72.584628,,,0,
667,667,"Main / Canterbury",,  42.158468, -72.580566,,,0,
668,668,"Main / Cedar (2)",,  42.159193, -72.498471,,,0,
669,669,"Oak / Caton (1)",,  42.159093, -72.503295,,,0,
67,67,"Mullins Center",,  42.389180, -72.532472,,,0,
670,670,"Main / Lyons (1)",,  42.159193, -72.496959,,,0,
673,673,"Belcher / Maple",,  42.157943, -72.580328,,,0,
675,675,"Main / Lyons (2)",,  42.158541, -72.494607,,,0,
676,676,"State Hwy 116 / Sitarz",,  42.157256, -72.612222,,,0,
678,678,"Main / Rogers (2)",,  42.157783, -72.491349,,,0,
679,679,"Grove / Court (2)",,  42.157034, -72.585233,,,0,
68,68,"Butterfield Hall (W)",,  42.388958, -72.517645,,,0,
680,680,"Main / Indian Leap",,  42.157833, -72.491937,,,0,
6801,6801,"Main / Meadow",,  42.189837, -72.620639,,,0,
6802,6802,"N Elm / Harvard",,  42.135056, -72.739987,,,0,
6808,6808,"White / Dawson (1)",,  42.091784, -72.555006,,,0,
681,681,"Grove / Court (1)",,  42.156956, -72.585145,,,0,
6811,6811,"Girls Inc. (Flag Stop)",,  42.205766, -72.604964,,,0,
682,682,"Old Chicopee / State Hwy 116",,  42.157395, -72.612050,,,0,
683,683,"Berkshire / Chestnut (1)",,  42.157216, -72.508123,,,0,
684,684,"Berkshire / Chestnut (2)",,  42.157153, -72.508791,,,0,
685,685,"Berkshire / Myrtle (1)",,  42.157031, -72.506381,,,0,
6850,6850,"Myrtle/Berkshire (in)",,  42.156798, -72.506283,,,0,
686,686,"Berkshire / Myrtle (2)",,  42.156984, -72.506314,,,0,
6860,6860,"Myrtle/Berkshire (out)",,  42.156862, -72.506126,,,0,
687,687,"Broadway / Ramp",,  42.156164, -72.580889,,,0,
6870,6870,"Springfield RMV",,  42.140853, -72.574690,,,0,
688,688,"Main / Rogers (1)",,  42.156989, -72.489800,,,0,
689,689,"Berkshire / Oak (1)",,  42.156836, -72.503995,,,0,
69,69,"Butterfield Hall (E)",,  42.388808, -72.517491,,,0,
691,691,"Main / Rogers (3)",,  42.156905, -72.489925,,,0,
6910,6910,"Worthington / Federal",,  42.112570, -72.580272,,,0,
692,692,"Broadway / Paine",,  42.156076, -72.580725,,,0,
693,693,"Berkshire / Oak (2)",,  42.156751, -72.504017,,,0,
694,694,"Berkshire / Holly",,  42.156588, -72.511074,,,0,
695,695,"Sewall / East",,  42.157472, -72.481061,,,0,
6950,6950,"Sewall / East (Opp Former Healthsouth)",,  42.157215, -72.480899,,,0,
6951,6951,"Sewall / Winsor",,  42.159312, -72.480363,,,0,
6952,6952,"Sewall / Winsor (opposite)",,  42.159315, -72.480016,,,0,
6953,6953,"Stop and Shop - Westfield",,  42.120209, -72.747317,,,0,
696,696,"Berkshire / Berkshire",,  42.156321, -72.511089,,,0,
697,697,"Grove / Oak",,  42.155380, -72.585471,,,0,
698,698,"Main / Banner (1)",,  42.156058, -72.488029,,,0,
699,699,"Main / Banner (2)",,  42.155992, -72.488176,,,0,
7,7,"Pioneer Valley Apts",,  42.459351, -72.578454,,,0,
70,70,"Recreation Center",,  42.389186, -72.532306,,,0,
701,701,"Kennedy Middle School",,  42.155032, -72.512268,,,0,
702,702,"Broadway / Summer",,  42.154138, -72.580496,,,0,
703,703,"Grove / Front",,  42.153976, -72.584604,,,0,
704,704,"Berkshire / Fiberloid",,  42.154496, -72.512993,,,0,
7043,7043,"Route 9 Cutout (East)",,  42.357903, -72.550120,,,0,
705,705,"Riverdale / Althea (1)",,  42.152801, -72.630998,,,0,
706,706,"Broadway / Pine",,  42.153326, -72.580523,,,0,
707,707,"Riverdale / Althea (2)",,  42.152632, -72.630706,,,0,
708,708,"Berkshire / Fiberloid",,  42.153700, -72.513430,,,0,
709,709,"Broadway / Pine",,  42.152835, -72.580352,,,0,
71,71,"Fine Arts Center",,  42.387829, -72.523915,,,0,
711,711,"Riverdale / Labelle (2)",,  42.151345, -72.630466,,,0,
712,712,"Goodwin / Lilac",,  42.151789, -72.506356,,,0,
713,713,"Lilac / Goodwin",,  42.151770, -72.506187,,,0,
714,714,"Front/Ellerton(opposite)",,  42.150704, -72.585412,,,0,
715,715,"Front / Ellerton",,  42.150618, -72.585329,,,0,
716,716,"Berkshire / Dutton",,  42.150907, -72.516061,,,0,
718,718,"Goodwin / Darling (1)",,  42.150641, -72.507907,,,0,
719,719,"Goodwin / Darling (2)",,  42.150392, -72.508116,,,0,
72,72,"Studio Arts Building",,  42.387656, -72.523501,,,0,
720,720,"Broadway / Grove",,  42.149543, -72.579990,,,0,
722,722,"Berkshire / Page",,  42.150049, -72.517079,,,0,
725,725,"Broadway / Monroe",,  42.149190, -72.579842,,,0,
726,726,"Front/Wheatland(opposite)",,  42.149051, -72.587467,,,0,
727,727,"Front/Springfield",,  42.148855, -72.606863,,,0,
728,728,"Goodwin / Layzon Brothers",,  42.149753, -72.508561,,,0,
729,729,"Riverdale / Hayes (2)",,  42.148488, -72.630727,,,0,
73,73,"Haigis Mall",,  42.387151, -72.526402,,,0,
730,730,"Berkshire / Seneca",,  42.149344, -72.517509,,,0,
731,731,"Chicopee Center- Dollar Store",,  42.148437, -72.608882,,,0,
732,732,"Riverdale / Hayes (1)",,  42.148140, -72.630425,,,0,
733,733,"Front / Grape (2)",,  42.148212, -72.603461,,,0,
735,735,"Front/Orchard(opposite)",,  42.148138, -72.598648,,,0,
736,736,"Berkshire / Ogden",,  42.148815, -72.518203,,,0,
737,737,"Chicopee Center - City Hall",,  42.148298, -72.606921,,,0,
738,738,"Front/Cyman",,  42.148092, -72.594778,,,0,
739,739,"Front/Academy(opposite)",,  42.148073, -72.591879,,,0,
74,74,"Boyden Gym (S)",,  42.386234, -72.531229,,,0,
7445,7445,"Rocky Hill Co Housing b",,  42.306126, -72.675109,,,0,
7446,7446,"Rocky Hill Co Housing a",,  42.306100, -72.675279,,,0,
7447,7447,"Florence Rd at Florence Heights",,  42.323768, -72.676859,,,0,
746,746,"Center / School",,  42.146835, -72.607245,,,0,
747,747,"Springfield / Pearl",,  42.146491, -72.605037,,,0,
748,748,"Broadway / Theodore",,  42.146993, -72.579650,,,0,
7481,7481,"Atwood Drive (Northbound)",,  42.303279, -72.623704,,,0,
7482,7482,"Lyman / Elm",,  42.210686, -72.607754,,,0,
7483,7483,"McNulty Park",,  42.214280, -72.616958,,,0,
749,749,"Broadway / Theodore",,  42.146966, -72.579786,,,0,
75,75,"UMass Visitors Center",,  42.385466, -72.524674,,,0,
750,750,"Berkshire / Lorimer",,  42.147431, -72.519244,,,0,
751,751,"Riverdale / U.S. Hwy 5 (4)",,  42.146491, -72.629695,,,0,
752,752,"Springfield / Howard",,  42.146486, -72.605169,,,0,
753,753,"Berkshire / Superior",,  42.147067, -72.519808,,,0,
756,756,"Cabot / Park",,  42.145627, -72.608897,,,0,
757,757,"Berkshire / Michigan",,  42.146256, -72.520326,,,0,
759,759,"Riverdale / U.S. Hwy 5 (1)",,  42.145191, -72.629182,,,0,
76,76,"Boyden Gym (N)",,  42.386550, -72.531202,,,0,
761,761,"Center/Union",,  42.144858, -72.608819,,,0,
764,764,"Boston / Biddle",,  42.145430, -72.484260,,,0,
765,765,"Berkshire / Champlain (1)",,  42.145190, -72.521545,,,0,
766,766,"Springfield / South",,  42.144461, -72.603407,,,0,
767,767,"Robbins / Baldarelli",,  42.146709, -72.543766,,,0,
768,768,"Springfield / Chapin",,  42.144291, -72.603479,,,0,
77,77,"Southwest Residential / Massachusetts Avenue (W)",,  42.384962, -72.528282,,,0,
770,770,"Riverdale / Wayside",,  42.143764, -72.628515,,,0,
771,771,"Riverdale / U.S. Hwy 5 (3)",,  42.143516, -72.628155,,,0,
773,773,"Center / South",,  42.143637, -72.610118,,,0,
774,774,"Cottage / Robbins (2)",,  42.144210, -72.544532,,,0,
775,775,"Broadway / Western",,  42.143676, -72.580373,,,0,
776,776,"Broadway / Western",,  42.143661, -72.580499,,,0,
778,778,"Industry/Cottage (State Offices)",,  42.143628, -72.543623,,,0,
779,779,"Springfield / Gaylord",,  42.143271, -72.602983,,,0,
78,78,"Southwest Residential / Massachusetts Avenue (E)",,  42.384694, -72.528417,,,0,
781,781,"Center/South",,  42.143535, -72.610024,,,0,
784,784,"Cottage/Progress (Opposite)",,  42.143107, -72.532883,,,0,
786,786,"Page / Sargon",,  42.143051, -72.554027,,,0,
788,788,"Page/Sargon (opposite)",,  42.142883, -72.554062,,,0,
789,789,"Springfield / Stearns",,  42.142414, -72.602710,,,0,
79,79,"Chestnut Street (N)",,  42.383684, -72.518478,,,0,
790,790,"Broadway / William",,  42.142170, -72.580963,,,0,
791,791,"Berkshire / Babbin",,  42.142436, -72.523602,,,0,
792,792,"Page and Prentice",,  42.142110, -72.555845,,,0,
794,794,"Page/Prentice(opposite)",,  42.142059, -72.555643,,,0,
795,795,"Industry/Cottage (2)",,  42.142059, -72.543437,,,0,
796,796,"Berkshire / Cottage",,  42.141918, -72.523623,,,0,
797,797,"Boston Road Opposite Eastfield Mall",,  42.142043, -72.491856,,,0,
798,798,"Broadway / Abbey Memorial",,  42.140955, -72.581466,,,0,
799,799,"Springfield / Casino",,  42.140746, -72.602339,,,0,
8,8,"Russell Street",,  42.458294, -72.572469,,,0,
80,80,"Chestnut Street (S)",,  42.383466, -72.518816,,,0,
8000,8000,"Hall Drive",,  42.357938, -72.484243,,,0,
8002,8002,"Old Belchertown Road 2",,  42.354713, -72.480109,,,0,
8006,8006,"Sunderland Center",,  42.464945, -72.580335,,,0,
8008,8008,"Sand Hill Road",,  42.412754, -72.514267,,,0,
8010,8010,"Mill Lane (Out)",,  42.354983, -72.520812,,,0,
8011,8011,"Columbia Drive (Out)",,  42.354330, -72.522023,,,0,
8014,8014,"Silver Street (In)",,  42.261480, -72.572668,,,0,
8015,8015,"Hadley Street (S)",,  42.261659, -72.580781,,,0,
8016,8016,"Skinner Mountain (N)",,  42.299409, -72.602209,,,0,
8017,8017,"Skinner Mountain (S)",,  42.299206, -72.602527,,,0,
8018,8018,"Middle Street / Rt 47 (E)",,  42.334366, -72.588107,,,0,
8019,8019,"Middle Street / Rt 47 (W)",,  42.334473, -72.588698,,,0,
802,802,"Page / Osborne",,  42.141129, -72.557712,,,0,
8020,8020,"Bay Road (W)",,  42.337568, -72.605840,,,0,
8022,8022,"Bay Road (E)",,  42.337413, -72.605885,,,0,
8024,8024,"Pulpit Hill Road 1",,  42.417420, -72.523872,,,0,
8025,8025,"Pulpit Hill Road 2",,  42.417172, -72.526890,,,0,
803,803,"Industry / Memorial",,  42.141126, -72.542875,,,0,
805,805,"Springfield / Henry Harris",,  42.140451, -72.602137,,,0,
806,806,"Eastfield Mall",,  42.141043, -72.485112,,,0,
81,81,"Fearing Street (In)",,  42.383049, -72.520484,,,0,
811,811,"Boston / Lucerne (1)",,  42.140727, -72.499922,,,0,
8110,8110,"Boston Road / Eastfield Mall",,  42.142405, -72.490199,,,0,
812,812,"Page/Windemere",,  42.140100, -72.559716,,,0,
814,814,"Springfield / Lemuel",,  42.139678, -72.601923,,,0,
817,817,"Page / Fresno",,  42.139599, -72.560381,,,0,
818,818,"Springfield / Marion",,  42.139382, -72.601953,,,0,
819,819,"Riverdale / Ashley (1)",,  42.138897, -72.626422,,,0,
82,82,"Fearing Street (Out)",,  42.382885, -72.520565,,,0,
823,823,"Boston / Fieldston",,  42.140049, -72.503302,,,0,
825,825,"Boston / Temby",,  42.139623, -72.505513,,,0,
826,826,"Berkshire / Harvey (2)",,  42.139467, -72.524980,,,0,
827,827,"Riverdale / Ashley (2)",,  42.138358, -72.625920,,,0,
828,828,"Berkshire / Harvey (1)",,  42.139361, -72.525344,,,0,
829,829,"Boston Road Mobile Home Park",,  42.139512, -72.505297,,,0,
83,83,"Green Lot 33 (W)",,  42.382363, -72.532248,,,0,
830,830,"Liberty / WGGB",,  42.138768, -72.582898,,,0,
832,832,"Page/Haumont",,  42.138796, -72.562137,,,0,
835,835,"Page / Saint James",,  42.138647, -72.562282,,,0,
838,838,"Parker / Frederic",,  42.139093, -72.495996,,,0,
84,84,"Green Lot 33 (E)",,  42.382284, -72.532163,,,0,
840,840,"Five Mile Pond Park",,  42.138847, -72.509775,,,0,
841,841,"Boston / Shumway",,  42.138669, -72.508970,,,0,
842,842,"Springfield Plaza, Kmart",,  42.137939, -72.579038,,,0,
844,844,"Springfield / Franklin (2)",,  42.137755, -72.601409,,,0,
845,845,"Springfield / Franklin (1)",,  42.137718, -72.601501,,,0,
846,846,"Center/Rt 91",,  42.137485, -72.612719,,,0,
847,847,"Parker / Ellery",,  42.138453, -72.495828,,,0,
848,848,"Stop and Shop - Spfld Plaza",,  42.137653, -72.582060,,,0,
849,849,"Center/South of I-91",,  42.137284, -72.612895,,,0,
85,85,"Triangle Street",,  42.382216, -72.519098,,,0,
850,850,"Memorial Industrial Park",,  42.137928, -72.545243,,,0,
851,851,"Boston/Lloyd",,  42.137877, -72.513110,,,0,
852,852,"Boston/Brandon",,  42.137786, -72.514474,,,0,
854,854,"Saint James/El Paso",,  42.137504, -72.564463,,,0,
855,855,"Boston / Phillips",,  42.137641, -72.514316,,,0,
856,856,"Saint James/Holy Cross(opposite)",,  42.136947, -72.565785,,,0,
858,858,"Boston / Glenwood (1)",,  42.137202, -72.517582,,,0,
859,859,"603 Berkshire Ave",,  42.137094, -72.527702,,,0,
86,86,"Southwest Residential  / University Drive (S)",,  42.382007, -72.531850,,,0,
860,860,"Boston / Glenwood (2)",,  42.137049, -72.517661,,,0,
861,861,"600 Berkshire Ave",,  42.137003, -72.528073,,,0,
863,863,"Saint James / Holy Cross",,  42.136663, -72.566067,,,0,
866,866,"Springfield Walmart",,  42.136634, -72.506824,,,0,
867,867,"Berkshire / Dewey",,  42.136383, -72.528720,,,0,
868,868,"Saint James / St James",,  42.135274, -72.568712,,,0,
869,869,"Boston / Lawnwood (1)",,  42.135218, -72.523602,,,0,
87,87,"Southwest Residential / University Drive (N)",,  42.382781, -72.531781,,,0,
870,870,"Springfield / Atwater (1)",,  42.135187, -72.600800,,,0,
871,871,"Boston / Lawnwood (2)",,  42.135861, -72.522281,,,0,
872,872,"Saint James / St James (2)",,  42.135418, -72.568741,,,0,
873,873,"Springfield / Mellen",,  42.135135, -72.600714,,,0,
874,874,"Berkshire / County",,  42.135522, -72.530077,,,0,
875,875,"Berkshire / Rush",,  42.135646, -72.529600,,,0,
876,876,"Parker / N Branch",,  42.135633, -72.495912,,,0,
879,879,"Saint James / St James (1)",,  42.135035, -72.569174,,,0,
881,881,"Riverdale / Pvt",,  42.134333, -72.625923,,,0,
883,883,"Berkshire / Elizabeth",,  42.135141, -72.530398,,,0,
885,885,"Carew/Shaine",,  42.134268, -72.570883,,,0,
886,886,"Boston / Arnold",,  42.134559, -72.524262,,,0,
8860,8860,"Price Rite Boston Road",,  42.133727, -72.523111,,,0,
887,887,"Boston / Stuart",,  42.134108, -72.525014,,,0,
888,888,"Springfield / Davenport (1)",,  42.133619, -72.600462,,,0,
8888,8888,"Olver Transit Pavilion",,  42.122785, -72.749324,,,0,
889,889,"Parker / Hermitage",,  42.134462, -72.495722,,,0,
89,89,"University Day School (S)",,  42.381538, -72.533913,,,0,
890,890,"Carew / Sherbrooke",,  42.133783, -72.571130,,,0,
891,891,"Riverdale / U.S. Hwy 5 (2)",,  42.132913, -72.625742,,,0,
892,892,"Liberty/Lynwood",,  42.133266, -72.584754,,,0,
893,893,"Springfield / Davenport (2)",,  42.133078, -72.600243,,,0,
894,894,"Parker / Overlea",,  42.133857, -72.495873,,,0,
896,896,"Berkshire / Egan",,  42.133434, -72.533143,,,0,
897,897,"Westfield State University",,  42.130725, -72.796658,,,0,
898,898,"Center St. (Opposite 628)",,  42.132750, -72.613069,,,0,
899,899,"Center/Health Clinic",,  42.132503, -72.613183,,,0,
9,9,"Sugarloaf Estates",,  42.457672, -72.581465,,,0,
90,90,"University Day School (N)",,  42.381489, -72.533848,,,0,
9000,9000,"Canon Circle (End Of Line)",,  42.086002, -72.507996,,,0,
9005,9005,"SAAB Court",,  42.111381, -72.592846,,,0,
9006,9006,"Sumner / Lenox",,  42.085970, -72.558741,,,0,
9007,9007,"Corticelli/ Pine OB",,  42.331223, -72.676532,,,0,
9008,9008,"Ryan/ Spring OB",,  42.329903, -72.678623,,,0,
901,901,"Berkshire / Harding",,  42.133660, -72.532574,,,0,
9011,9011,"Brassworks IB",,  42.376798, -72.705908,,,0,
9012,9012,"54 Industrial Drive",,  42.333690, -72.629500,,,0,place_54Inds
9014,9014,"State/Federal",,  42.107677, -72.577838,,,0,
9019,9019,"East Mountain View Sr Housing",,  42.112161, -72.701408,,,0,
902,902,"Carew/Upland",,  42.132623, -72.573187,,,0,
9022,9022,"Boland Way",,  42.102091, -72.591275,,,0,
903,903,"Bay / Hood (1)",,  42.132749, -72.541860,,,0,
9037,9037,"Belmont / White (opposite Winepeg)",,  42.083080, -72.543094,,,0,
9038,9038,"Main / Patton",,  42.109221, -72.600514,,,0,
9039,9039,"Rocky's Hardware",,  42.086995, -72.628436,,,0,
904,904,"Bay / Hood (2)",,  42.132633, -72.542340,,,0,
9040,9040,"Harrison Avenue (Out)",,  42.102929, -72.589653,,,0,
905,905,"Bay / Bay Path",,  42.132611, -72.543610,,,0,
9050,9050,"Amity Place (In)",,  42.373957, -72.531542,,,0,
9051,9051,"Lincoln Avenue (In)",,  42.375594, -72.523912,,,0,
9052,9052,"Jones Library (In)",,  42.375759, -72.521715,,,0,
9053,9053,"The Mill District",,  42.415169, -72.529843,,,0,
9054,9054,"Amherst Survival Center (In)",,  42.414663, -72.532605,,,0,
9055,9055,"Amherst Survival Center (Out)",,  42.414661, -72.532456,,,0,
9058,9058,"Chmura Road (N)",,  42.315367, -72.575920,,,0,
9059,9059,"Chmura Road (S)",,  42.315439, -72.575992,,,0,
906,906,"Carew / Upland",,  42.132340, -72.573389,,,0,
907,907,"Liberty / Edgar",,  42.132207, -72.584598,,,0,
908,908,"Bay / Haskin (2)",,  42.132564, -72.540474,,,0,
9086,9086,"HTC Bay 7",,  42.208505, -72.607303,,,0,place_HTC
9087,9087,"HTC Bay 6",,  42.208451, -72.607356,,,0,place_HTC
9088,9088,"HTC Bay 5",,  42.208394, -72.607413,,,0,place_HTC
9089,9089,"HTC Bay 4",,  42.208339, -72.607466,,,0,place_HTC
909,909,"Bay / Cloran",,  42.132424, -72.544585,,,0,
9095,9095,"Hampshire County House of Corrections",,  42.307324, -72.658579,,,0,
9096,9096,"HTC Bay 3",,  42.208283, -72.607521,,,0,place_HTC
9097,9097,"HTC Bay 2",,  42.208226, -72.607576,,,0,place_HTC
9098,9098,"HTC Bay 1",,  42.208170, -72.607631,,,0,place_HTC
91,91,"McGuirk Stadium / Yellow Lot 11 (N)",,  42.379965, -72.533982,,,0,
910,910,"Bay / Haskin (1)",,  42.132544, -72.540178,,,0,
911,911,"Parker / Sonia",,  42.132705, -72.495850,,,0,
9129,9129,"50 Wason Avenue",,  42.125259, -72.615868,,,0,
9130,9130,"Williams/Longmeadow",,  42.050586, -72.582768,,,0,
9140,9140,"Commerce High School",,  42.106877, -72.578940,,,0,
9141,9141,"Central High School (Tripper Only)",,  42.130812, -72.549532,,,0,
9142,9142,"Roosevelt / Central High School",,  42.131018, -72.545984,,,0,
9146,9146,"Central HS (Tripper Only)",,  42.130797, -72.547074,,,0,
915,915,"Carew / Piedmont",,  42.131654, -72.574701,,,0,
9150,9150,"State / Benton",,  42.116326, -72.549461,,,0,
9151,9151,"Putnam High School (Blunt Park Road)",,  42.119048, -72.548013,,,0,
916,916,"Springfield / Atwater (2)",,  42.131411, -72.600328,,,0,
9160,9160,"Crafts Avenue / Peter Pan",,  42.316730, -72.631595,,,0,
9161,9161,"Look Park OB",,  42.344156, -72.681959,,,0,
917,917,"Bay / Central High School (1)",,  42.131723, -72.549467,,,0,
918,918,"Springfield / Atwater (3)",,  42.131206, -72.600226,,,0,
92,92,"McGuirk Stadium / Yellow Lot 11 (S)",,  42.379891, -72.534102,,,0,
920,920,"Carew/Savoy",,  42.131525, -72.574668,,,0,
9202,9202,"100 Wason Avenue",,  42.125426, -72.613931,,,0,
921,921,"Parker / Ravenwood",,  42.132070, -72.495695,,,0,
922,922,"Bay / Central High School (2)",,  42.131528, -72.550607,,,0,
924,924,"Bay / Jasper (1)",,  42.131651, -72.537276,,,0,
925,925,"Bay / Jasper (2)",,  42.131557, -72.537244,,,0,
9250,9250,"Dwight and Converse",,  42.059828, -72.537645,,,0,
926,926,"Riverdale Shops 2",,  42.130419, -72.622538,,,0,
927,927,"Center/Plainfield (Opposite)",,  42.130398, -72.612650,,,0,
929,929,"Western / Westwood",,  42.128960, -72.792993,,,0,
93,93,"Pray Street (Out)",,  42.379583, -72.519716,,,0,
930,930,"Riverdale Shops 1",,  42.130718, -72.624163,,,0,
931,931,"Berkshire / Bay (Robinson Gardens)",,  42.131194, -72.534628,,,0,
9310,9310,"State and Main(Tripper Timepoint)",,  42.101123, -72.586728,,,0,
9311,9311,"Springfield Library",,  42.103118, -72.584468,,,0,
9312,9312,"Carew and Main(Tripper Timepoint)",,  42.110138, -72.601362,,,0,
9315,9315,"Armory and Carew(Tripper Timepoint)",,  42.121983, -72.588475,,,0,
9316,9316,"State / Main (Tripper Only)",,  42.101111, -72.586952,,,0,
932,932,"Center / Plainfield",,  42.130762, -72.612968,,,0,
9320,9320,"State and St. James(Tripper Timepoint)",,  42.109630, -72.573416,,,0,
9322,9322,"State and St. James(Tripper Timepoint)",,  42.108748, -72.575246,,,0,
9323,9323,"Carew and Main(Tripper Timepoint)",,  42.111417, -72.599924,,,0,
9324,9324,"Carew and Chestnut",,  42.113661, -72.596848,,,0,
9326,9326,"State and Dwight(Tripper Timepoint)",,  42.102167, -72.585748,,,0,
9327,9327,"State and Chestnut(Tripper Timepoint)",,  42.101952, -72.585773,,,0,
9328,9328,"Tapley and St. James(Tripper Timepoint)",,  42.125257, -72.567171,,,0,
9329,9329,"Wason / Fisk",,  42.124709, -72.613533,,,0,
933,933,"Union / Springdale Ave",,  42.129011, -72.731415,,,0,
9330,9330,"Island Pond Road and Allen Street (2)",,  42.094880, -72.550754,,,0,
9331,9331,"Island Pond Road and Allen Street (1)",,  42.094786, -72.550991,,,0,
934,934,"Berkshire / Bay",,  42.131116, -72.534485,,,0,
936,936,"Carew / Suzanne",,  42.130635, -72.576545,,,0,
937,937,"Horace Mann Center (333 Western Ave)",,  42.128405, -72.784608,,,0,
938,938,"Boston / Morton (2)",,  42.130927, -72.526688,,,0,
939,939,"Union / Lower Sandy Hill",,  42.128889, -72.731066,,,0,
94,94,"Pray Street (In)",,  42.379759, -72.519506,,,0,
940,940,"Boston / Morton (1)",,  42.130843, -72.527036,,,0,
941,941,"Carew / Eddy",,  42.130414, -72.576731,,,0,
942,942,"Bay / Blunt Park (1)",,  42.130675, -72.554020,,,0,
943,943,"Western / Woodward Center",,  42.127056, -72.787289,,,0,
944,944,"Bay / Blunt Park (2)",,  42.130782, -72.554061,,,0,
9441,9441,"Walnut / Shopping Court",,  42.088064, -72.629414,,,0,
9442,9442,"Walnut / Shopping Court (Opposite)",,  42.087946, -72.629292,,,0,
946,946,"Parker / Sunnybrook",,  42.129983, -72.495804,,,0,
947,947,"Liberty / Roy",,  42.129240, -72.584495,,,0,
948,948,"Carew/Judson",,  42.129215, -72.579225,,,0,
949,949,"Riverdale / Parking Lot",,  42.129044, -72.626422,,,0,
95,95,"Cowles Lane",,  42.377887, -72.520006,,,0,
950,950,"Carew / Middle",,  42.129003, -72.579338,,,0,
953,953,"Riverdale / Pierce",,  42.128200, -72.626848,,,0,
954,954,"Bay / Blunt Park (4)",,  42.129039, -72.556860,,,0,
955,955,"Springfield / Shefford (1)",,  42.128404, -72.600525,,,0,
956,956,"Boston / Pheland",,  42.128907, -72.529414,,,0,
957,957,"Springfield / Shefford (2)",,  42.128153, -72.600428,,,0,
958,958,"Carew / Nottingham",,  42.128145, -72.580838,,,0,
9587,9587,"Raymond A. Jordan Senior Center",,  42.125003, -72.550907,,,0,
96,96,"Amherst Post Office",,  42.377804, -72.519836,,,0,
960,960,"Liberty / Langdon",,  42.127793, -72.584540,,,0,
961,961,"Boston/Seymour",,  42.128191, -72.530043,,,0,
962,962,"Boston / Wilton",,  42.127680, -72.530896,,,0,
964,964,"Parker / Patricia (1)",,  42.127766, -72.496204,,,0,
965,965,"Main/Main",,  42.127641, -72.611450,,,0,
966,966,"Parker / Patricia (2)",,  42.127556, -72.496108,,,0,
967,967,"Center / Main",,  42.127705, -72.611612,,,0,
968,968,"Carew / Liberty (1)",,  42.126610, -72.583013,,,0,
969,969,"Boston / Barber",,  42.127079, -72.531452,,,0,
97,97,"Dallas Mall (W)",,  42.377636, -72.534152,,,0,
970,970,"Springfield / Caseland",,  42.126291, -72.601107,,,0,
972,972,"Carew / Freeman",,  42.126387, -72.583086,,,0,
973,973,"Springfield / Cunningham",,  42.126065, -72.601213,,,0,
974,974,"Boston / Denver (2)",,  42.126326, -72.532669,,,0,
975,975,"Boston / Denver (1)",,  42.126215, -72.533200,,,0,
976,976,"Liberty / Carew",,  42.125768, -72.584351,,,0,
977,977,"Bay / Baywood (1)",,  42.125958, -72.558840,,,0,
978,978,"3550 Main Street",,  42.126355, -72.611090,,,0,
979,979,"Baystate Parking Lot N",,  42.126441, -72.610885,,,0,
98,98,"Dallas Mall (E)",,  42.377534, -72.532615,,,0,
980,980,"Carew / Liberty (2)",,  42.125622, -72.584215,,,0,
9800,9800,"Western / Lathrop",,  42.122634, -72.774434,,,0,
9801,9801,"Court / Cemetery",,  42.119418, -72.763252,,,0,
981,981,"Bay / Baywood (2)",,  42.125685, -72.558897,,,0,
982,982,"Boston / Coleman",,  42.125611, -72.534127,,,0,
983,983,"Western / Birch",,  42.123373, -72.776629,,,0,
984,984,"Carew / Libcar",,  42.125053, -72.584651,,,0,
985,985,"Liberty / Carew",,  42.124846, -72.584422,,,0,
986,986,"Carew / Penacook",,  42.124796, -72.585150,,,0,
989,989,"Boston / Preston",,  42.125167, -72.535948,,,0,
99,99,"Thayer Street (Out)",,  42.376376, -72.486325,,,0,
990,990,"Boston / Ambrose (3)",,  42.125046, -72.535912,,,0,
9901,9901,"Thayer Street (In)",,  42.376449, -72.486564,,,0,
991,991,"Parker / Nassau",,  42.125254, -72.496758,,,0,
992,992,"Elm / Ramp",,  42.123975, -72.626691,,,0,
993,993,"Western / Highland",,  42.119608, -72.765257,,,0,
994,994,"3350 Main Street",,  42.124025, -72.610094,,,0,
995,995,"Boston / Ambrose (1)",,  42.124618, -72.538212,,,0,
996,996,"Parker / Gary",,  42.124904, -72.497009,,,0,
9968,9968,"State / Hampden (opposite)",,  42.156368, -72.477120,,,0,
9969,9969,"Encompass Health",,  42.154753, -72.472548,,,0,
9970,9970,"State and Hampden",,  42.156490, -72.477269,,,0,
9971,9971,"East and Chestnut",,  42.156832, -72.482314,,,0,
998,998,"Elm / Dingle (1)",,  42.123738, -72.626896,,,0,
999,999,"Boston / Ambrose (2)",,  42.124503, -72.538204,,,0,
9990,9990,"Whately Park and Ride",,  42.469970, -72.615260,,,0,
9993,9993,"Industrial Drive",,  42.467677, -72.605527,,,0,
9999,9999,"Riverside Park Plaza",,  42.411086, -72.530552,,,0,
place_AcaMus,,"ACADEMY OF MUSIC",,  42.317677, -72.633607,,,1,
place_HTC,,"Holyoke Transportation Center",,  42.207958, -72.607763,,,1,
place_UnSta,,"Springfield Union Station",,  42.106527, -72.593655,,,1,
place_54Inds,,"Damon and Industrial",,  42.333647, -72.629347,,,1,
